property_id,street_address,city,state,zip_code,county,latitude,longitude,year_built,square_footage,construction_type,roof_type,stories,occupancy_type,flood_zone,wind_zone,property_value,created_at,updated_at
PROP-0000001,3757 Cedar Ave,Houston,TX,79379,Houston County,26.4779602,-105.4354399,1985,900,FRAME,TILE,1,PRIMARY,VE,5,675718.15,2021-05-16T00:00:00,2021-09-07T00:00:00
PROP-0000002,2715 Hickory Way,Naperville,IL,61045,Naperville County,27.6431515,-81.8826248,1950,2900,FRAME,SHINGLE,1,RENTAL,C,5,455619.63,2024-04-03T00:00:00,2024-04-14T00:00:00
PROP-0000003,9144 Elm Ct,Jackson,MS,39534,Jackson County,36.9777212,-121.9837271,1998,2200,CONCRETE,SHINGLE,2,PRIMARY,X,3,723842.63,2020-06-10T00:00:00,2020-09-11T00:00:00
PROP-0000004,4474 Hickory Ave,Shreveport,LA,70991,Shreveport County,27.909357,-91.9184209,1995,1800,STEEL,FLAT,1,SECONDARY,C,1,405248.26,2021-03-05T00:00:00,2021-03-13T00:00:00
PROP-0000005,3556 Bay Ct,Macon,GA,30693,Macon County,33.4869314,-85.0739412,1984,4900,STEEL,TILE,1,SECONDARY,B,5,688376.03,2020-05-15T00:00:00,2020-10-11T00:00:00
PROP-0000006,8448 Cypress Ave,Huntsville,AL,35124,Huntsville County,27.5983024,-116.9607919,1978,3500,WOOD,SHINGLE,1,VACANT,B,5,1302307.18,2020-10-10T00:00:00,2020-10-12T00:00:00
PROP-0000007,4471 Walnut Ct,Corpus Christi,TX,75747,Corpus Christi County,32.3910093,-104.0361569,2018,2400,WOOD,TILE,2,PRIMARY,B,5,944737.7,2024-03-17T00:00:00,2024-04-25T00:00:00
PROP-0000008,8789 Bay St,Savannah,GA,31951,Savannah County,33.306297,-119.0778201,2019,3100,CONCRETE,TILE,1,PRIMARY,AE,4,1238753.02,2024-05-13T00:00:00,2024-09-26T00:00:00
PROP-0000009,2805 Elm Way,Baton Rouge,LA,70379,Baton Rouge County,37.8395083,-93.6458242,2010,2700,STEEL,WOOD_SHAKE,2,VACANT,X500,1,432025.97,2023-01-30T00:00:00,2023-02-15T00:00:00
PROP-0000010,9741 Pine St,Atlanta,GA,30290,Atlanta County,26.000854,-121.0343856,2020,1000,CONCRETE,SHINGLE,2,RENTAL,X500,2,845712.18,2021-04-16T00:00:00,2021-09-09T00:00:00
PROP-0000011,7849 Walnut Way,Rockford,IL,60622,Rockford County,26.6478238,-105.033748,1981,3500,STEEL,FLAT,2,PRIMARY,AE,1,651722.22,2024-05-25T00:00:00,2024-08-19T00:00:00
PROP-0000012,8886 Cypress Blvd,Dallas,TX,77733,Dallas County,29.7352675,-113.0085163,1974,1200,STEEL,SLATE,1,PRIMARY,AE,2,316161.78,2021-01-24T00:00:00,2021-05-28T00:00:00
PROP-0000013,2797 Palm St,Gulfport,MS,39243,Gulfport County,40.7508073,-89.4543083,2001,2600,STEEL,WOOD_SHAKE,3,VACANT,V,2,501325.11,2020-04-30T00:00:00,2020-05-14T00:00:00
PROP-0000014,921 Birch Pl,Chicago,IL,61677,Chicago County,27.6763564,-81.7257283,1990,1300,MASONRY,SHINGLE,2,SECONDARY,X,1,1417066.5,2020-04-27T00:00:00,2020-09-19T00:00:00
PROP-0000015,9662 Birch Ct,Charleston,SC,29436,Charleston County,36.3853416,-110.17591,1960,2400,STEEL,TILE,2,RENTAL,X500,3,1399206.03,2022-05-08T00:00:00,2022-05-26T00:00:00
PROP-0000016,1300 Willow Dr,Jacksonville,FL,33643,Jacksonville County,27.2517617,-108.6436113,2022,1200,MASONRY,METAL,1,VACANT,B,5,1477071.7,2020-07-23T00:00:00,2021-01-06T00:00:00
PROP-0000017,1797 Bay Blvd,Los Angeles,CA,91624,Los Angeles County,40.125116,-91.3336659,2020,1700,CONCRETE,METAL,2,RENTAL,VE,3,797680.86,2021-09-05T00:00:00,2021-11-08T00:00:00
PROP-0000018,822 Oak Ct,Miami,FL,34426,Miami County,35.8309274,-112.4739685,2004,3600,WOOD,WOOD_SHAKE,2,PRIMARY,AE,1,1421972.33,2021-07-20T00:00:00,2022-01-12T00:00:00
PROP-0000019,9643 Willow Blvd,Lake Charles,LA,70626,Lake Charles County,25.7110906,-107.9553333,1954,1000,CONCRETE,TILE,2,PRIMARY,C,5,1335471.28,2022-01-26T00:00:00,2022-05-10T00:00:00
PROP-0000020,3000 Bay Way,Springfield,IL,60032,Springfield County,37.521596,-109.3838394,1980,3400,MANUFACTURED,WOOD_SHAKE,2,RENTAL,V,1,623209.25,2020-11-28T00:00:00,2020-12-07T00:00:00
PROP-0000021,5828 Elm Dr,Gulfport,MS,38913,Gulfport County,36.2205641,-106.4674969,1975,2500,FRAME,METAL,1,VACANT,C,1,243785.29,2022-07-31T00:00:00,2022-10-05T00:00:00
PROP-0000022,1876 Birch Way,Lake Charles,LA,70550,Lake Charles County,32.418696,-80.6936226,1983,1500,STEEL,SLATE,1,PRIMARY,X,1,818286.89,2020-03-19T00:00:00,2020-08-03T00:00:00
PROP-0000023,5509 Birch Ct,Myrtle Beach,SC,29148,Myrtle Beach County,33.6210826,-94.6567122,2005,2800,STEEL,WOOD_SHAKE,1,SECONDARY,VE,4,1024199.8,2020-05-23T00:00:00,2020-08-28T00:00:00
PROP-0000024,6753 Willow St,Lake Charles,LA,70446,Lake Charles County,28.5731056,-89.4266116,2022,4600,MANUFACTURED,METAL,2,VACANT,VE,5,751924.38,2021-09-08T00:00:00,2021-10-21T00:00:00
PROP-0000025,5591 Maple Dr,Austin,TX,79349,Austin County,28.8188913,-115.238283,2015,900,FRAME,TILE,3,PRIMARY,X500,4,1338314.41,2023-09-21T00:00:00,2024-02-15T00:00:00
PROP-0000026,4097 Cedar St,Greenville,SC,29164,Greenville County,28.7202993,-88.6191663,2013,4100,STEEL,SHINGLE,2,PRIMARY,X500,2,1218011.57,2022-03-29T00:00:00,2022-09-15T00:00:00
PROP-0000027,8370 Palm Pl,San Diego,CA,95730,San Diego County,37.6421425,-103.1143248,2006,2400,MASONRY,WOOD_SHAKE,1,VACANT,VE,3,704619.08,2023-06-08T00:00:00,2023-08-20T00:00:00
PROP-0000028,8949 Maple Blvd,Myrtle Beach,SC,29239,Myrtle Beach County,31.5116,-117.2765683,1992,2100,FRAME,FLAT,2,VACANT,X,1,373704.83,2021-10-16T00:00:00,2022-01-31T00:00:00
PROP-0000029,7914 Oak Ct,Birmingham,AL,35959,Birmingham County,39.5086152,-82.0490651,2023,3400,WOOD,WOOD_SHAKE,2,SECONDARY,X500,2,467568.14,2022-02-18T00:00:00,2022-06-22T00:00:00
PROP-0000030,6724 Hickory Blvd,Jacksonville,FL,34669,Jacksonville County,40.6322076,-80.848233,1993,4200,FRAME,FLAT,2,PRIMARY,AE,4,272693.27,2023-10-01T00:00:00,2024-01-27T00:00:00
PROP-0000031,5463 Pine Pl,New Orleans,LA,70553,New Orleans County,37.940905,-107.3184465,1983,3400,CONCRETE,SHINGLE,2,PRIMARY,C,2,1003204.61,2022-02-15T00:00:00,2022-07-31T00:00:00
PROP-0000032,433 Birch Blvd,Miami,FL,32726,Miami County,33.050538,-118.9668644,1981,2100,STEEL,WOOD_SHAKE,1,RENTAL,V,5,942291.44,2021-02-12T00:00:00,2021-03-13T00:00:00
PROP-0000033,520 Bay Ln,Shreveport,LA,70996,Shreveport County,40.4364446,-107.4864938,1963,2000,FRAME,SLATE,2,SECONDARY,AE,3,1287416.4,2023-03-31T00:00:00,2023-08-31T00:00:00
PROP-0000034,8828 Palm Ct,Fort Worth,TX,75474,Fort Worth County,36.0082353,-123.4433054,1955,3400,STEEL,SHINGLE,2,RENTAL,X500,2,698391.75,2021-12-12T00:00:00,2022-04-24T00:00:00
PROP-0000035,9807 Elm Ct,Asheville,NC,27721,Asheville County,29.7417802,-104.164712,2009,3700,WOOD,SLATE,2,RENTAL,A,4,1288353.03,2022-06-11T00:00:00,2022-07-27T00:00:00
PROP-0000036,5676 Elm Ln,Gulfport,MS,39411,Gulfport County,33.7826633,-115.5935174,1995,2300,MANUFACTURED,FLAT,2,SECONDARY,X500,4,716407.86,2021-06-13T00:00:00,2021-06-17T00:00:00
PROP-0000037,4086 Elm Ct,Austin,TX,78080,Austin County,34.0256728,-105.2778322,1978,4300,CONCRETE,METAL,2,RENTAL,B,3,407364.02,2022-04-08T00:00:00,2022-05-27T00:00:00
PROP-0000038,3133 Pine Dr,Atlanta,GA,31545,Atlanta County,37.317945,-81.029291,2018,4100,WOOD,METAL,3,SECONDARY,B,2,592451.12,2024-04-09T00:00:00,2024-06-25T00:00:00
PROP-0000039,4594 Oak St,Naples,FL,33747,Naples County,36.8560957,-118.4437023,2018,3900,FRAME,SHINGLE,2,VACANT,X500,4,563802.42,2020-09-16T00:00:00,2020-09-29T00:00:00
PROP-0000040,6665 Cypress Ave,Asheville,NC,28890,Asheville County,36.6696673,-117.3240117,1964,4400,CONCRETE,SHINGLE,3,PRIMARY,X,5,926500.12,2020-05-13T00:00:00,2020-10-18T00:00:00
PROP-0000041,4971 Laurel Way,Greenville,SC,29482,Greenville County,35.5574645,-97.1762399,2007,1400,MASONRY,WOOD_SHAKE,1,PRIMARY,V,2,326815.24,2022-06-25T00:00:00,2022-07-14T00:00:00
PROP-0000042,9829 Cypress Ln,New Orleans,LA,70039,New Orleans County,29.8977831,-111.5603916,2002,3700,FRAME,WOOD_SHAKE,1,RENTAL,VE,4,242982.35,2022-07-11T00:00:00,2022-09-06T00:00:00
PROP-0000043,1077 Cedar Ln,Shreveport,LA,70982,Shreveport County,40.660273,-104.6772483,1968,3700,MANUFACTURED,METAL,2,RENTAL,X500,4,194227.43,2020-05-26T00:00:00,2020-06-05T00:00:00
PROP-0000044,1596 Pine St,Huntsville,AL,35883,Huntsville County,25.6839384,-90.7241715,1982,3800,WOOD,WOOD_SHAKE,2,RENTAL,V,5,698956.68,2020-02-22T00:00:00,2020-06-26T00:00:00
PROP-0000045,5560 Magnolia Ave,San Antonio,TX,76052,San Antonio County,31.9979665,-102.1993631,1994,5000,STEEL,SLATE,1,PRIMARY,C,3,539048.78,2022-04-16T00:00:00,2022-07-28T00:00:00
PROP-0000046,6870 Oak Dr,Los Angeles,CA,93356,Los Angeles County,35.5847758,-102.0663035,2019,3600,FRAME,TILE,1,SECONDARY,B,4,1330802.2,2022-08-04T00:00:00,2022-12-06T00:00:00
PROP-0000047,2694 Elm St,Houston,TX,78562,Houston County,26.5845564,-80.3406859,1980,1500,STEEL,SHINGLE,2,SECONDARY,X500,3,802598.26,2023-12-24T00:00:00,2024-03-02T00:00:00
PROP-0000048,7583 Willow Blvd,Montgomery,AL,36234,Montgomery County,40.6717585,-101.6374008,2010,1600,FRAME,METAL,2,VACANT,C,5,459385.18,2021-05-14T00:00:00,2021-05-14T00:00:00
PROP-0000049,8122 Laurel Blvd,Wilmington,NC,28478,Wilmington County,33.2338036,-109.3726419,2024,4200,STEEL,FLAT,3,SECONDARY,VE,5,623818.61,2023-09-13T00:00:00,2023-12-27T00:00:00
PROP-0000050,6346 Palm Blvd,Orlando,FL,33514,Orlando County,27.1461866,-81.524442,2010,2900,FRAME,FLAT,1,VACANT,A,2,662169.64,2023-12-15T00:00:00,2024-05-30T00:00:00
PROP-0000051,4442 Magnolia Way,New Orleans,LA,71020,New Orleans County,39.48001,-86.4969812,2010,4200,STEEL,METAL,2,VACANT,A,5,177157.46,2024-05-19T00:00:00,2024-10-27T00:00:00
PROP-0000052,1712 Walnut Ave,Raleigh,NC,28431,Raleigh County,36.7980198,-84.2493413,1961,1000,CONCRETE,SHINGLE,1,RENTAL,X,2,426760.35,2022-06-07T00:00:00,2022-09-20T00:00:00
PROP-0000053,1393 Birch Way,Springfield,IL,61997,Springfield County,29.0941065,-83.8355233,1971,1700,MASONRY,FLAT,2,VACANT,B,1,1356450.12,2020-12-24T00:00:00,2021-04-22T00:00:00
PROP-0000054,5761 Birch Ln,Raleigh,NC,28398,Raleigh County,29.2516698,-86.8066273,1959,2000,STEEL,FLAT,1,VACANT,C,5,500138.79,2022-06-23T00:00:00,2022-12-19T00:00:00
PROP-0000055,232 Birch St,Charlotte,NC,28973,Charlotte County,39.1582613,-84.2708636,2000,2200,WOOD,METAL,1,SECONDARY,B,2,972112.31,2021-07-16T00:00:00,2021-12-23T00:00:00
PROP-0000056,9595 Magnolia Blvd,Orlando,FL,32247,Orlando County,30.5542251,-105.7178639,2006,2000,MASONRY,SLATE,2,RENTAL,B,2,444897.52,2020-03-09T00:00:00,2020-07-10T00:00:00
PROP-0000057,1333 Cedar Dr,Wilmington,NC,28281,Wilmington County,31.2181758,-89.2099934,1964,800,CONCRETE,SLATE,1,RENTAL,B,5,621056.21,2022-08-17T00:00:00,2023-01-27T00:00:00
PROP-0000058,510 Birch Ct,Atlanta,GA,31938,Atlanta County,36.0100905,-96.0422274,1979,3700,MANUFACTURED,METAL,2,PRIMARY,V,1,1423691.38,2022-08-23T00:00:00,2022-11-08T00:00:00
PROP-0000059,8907 Cedar Way,Jackson,MS,39357,Jackson County,36.3982657,-91.3018347,1962,4200,STEEL,SLATE,2,SECONDARY,X,1,1263844.18,2021-04-25T00:00:00,2021-09-29T00:00:00
PROP-0000060,6170 Pine Pl,Huntsville,AL,36440,Huntsville County,39.5426533,-119.6283965,1954,3100,WOOD,WOOD_SHAKE,1,VACANT,B,2,1454853.76,2023-11-14T00:00:00,2024-03-09T00:00:00
PROP-0000061,9883 Oak St,Corpus Christi,TX,77141,Corpus Christi County,41.8099554,-89.3729636,1977,2100,FRAME,SLATE,1,SECONDARY,VE,3,1179603.38,2023-08-07T00:00:00,2024-01-06T00:00:00
PROP-0000062,8950 Elm Blvd,Orlando,FL,32394,Orlando County,39.7296141,-118.2006579,1968,3000,MASONRY,SLATE,1,SECONDARY,B,1,259997.13,2020-09-23T00:00:00,2021-01-08T00:00:00
PROP-0000063,7444 Walnut Ct,Los Angeles,CA,93285,Los Angeles County,26.8539182,-101.8310976,1958,4700,FRAME,WOOD_SHAKE,2,RENTAL,X500,1,166372.08,2022-09-02T00:00:00,2023-01-02T00:00:00
PROP-0000064,7367 Maple Ave,Montgomery,AL,36087,Montgomery County,27.521675,-118.4475701,1963,4700,MANUFACTURED,SLATE,2,RENTAL,X,5,833390.71,2022-10-01T00:00:00,2023-01-25T00:00:00
PROP-0000065,1974 Laurel Dr,Sacramento,CA,92767,Sacramento County,40.0975474,-105.7922029,1962,3700,STEEL,FLAT,2,RENTAL,X,3,1024453.17,2023-12-08T00:00:00,2024-03-12T00:00:00
PROP-0000066,1498 Maple Way,Lafayette,LA,70157,Lafayette County,38.8000778,-99.5196876,1958,4500,WOOD,SLATE,1,PRIMARY,X,3,1320522.47,2020-07-05T00:00:00,2020-10-21T00:00:00
PROP-0000067,1797 Birch Dr,Orlando,FL,32494,Orlando County,33.1972197,-86.7199067,1989,3000,WOOD,METAL,1,RENTAL,VE,4,1280120.33,2021-12-21T00:00:00,2022-05-29T00:00:00
PROP-0000068,3055 Elm Ln,Chicago,IL,62953,Chicago County,30.9673982,-116.0181554,1984,1700,WOOD,WOOD_SHAKE,2,SECONDARY,A,1,1139478.7,2020-02-29T00:00:00,2020-04-24T00:00:00
PROP-0000069,2678 Magnolia Ln,Montgomery,AL,36082,Montgomery County,35.1358041,-85.1329439,2008,1700,MASONRY,SLATE,1,PRIMARY,B,4,1019952.94,2021-11-29T00:00:00,2022-04-02T00:00:00
PROP-0000070,3631 Walnut Ave,Rockford,IL,61165,Rockford County,26.8851261,-94.1584127,2003,4500,STEEL,SLATE,2,PRIMARY,VE,4,1477912.83,2021-07-13T00:00:00,2021-07-27T00:00:00
PROP-0000071,2348 Walnut Ln,Tampa,FL,32951,Tampa County,27.0397338,-102.1150455,1988,3500,MASONRY,TILE,1,SECONDARY,C,1,643841.07,2021-03-08T00:00:00,2021-03-18T00:00:00
PROP-0000072,5229 Birch Way,Birmingham,AL,36861,Birmingham County,37.0614823,-105.6214658,2008,1500,STEEL,SHINGLE,3,SECONDARY,X500,3,205144.43,2020-06-08T00:00:00,2020-07-05T00:00:00
PROP-0000073,1388 Palm Ln,Greenville,SC,29538,Greenville County,30.6621666,-116.6021608,2001,4000,MANUFACTURED,SHINGLE,2,SECONDARY,C,3,1112878.33,2022-12-09T00:00:00,2023-05-23T00:00:00
PROP-0000074,4293 Pine Blvd,Baton Rouge,LA,70929,Baton Rouge County,37.92366,-95.1576035,1963,1900,MANUFACTURED,FLAT,2,VACANT,C,3,294359.51,2020-10-26T00:00:00,2020-11-12T00:00:00
PROP-0000075,9789 Oak Ct,Hattiesburg,MS,39419,Hattiesburg County,30.2769335,-104.11579,1988,1100,CONCRETE,METAL,1,PRIMARY,X,4,904067.76,2021-07-16T00:00:00,2021-07-26T00:00:00
PROP-0000076,7892 Willow Blvd,Gulfport,MS,38667,Gulfport County,26.7595319,-84.4384193,1991,2900,MANUFACTURED,SHINGLE,2,SECONDARY,A,2,1084822.82,2023-05-24T00:00:00,2023-09-13T00:00:00
PROP-0000077,4734 Palm Way,San Francisco,CA,94953,San Francisco County,36.5412612,-121.6959172,1996,4800,MANUFACTURED,METAL,1,PRIMARY,X,3,437834.01,2022-02-02T00:00:00,2022-07-20T00:00:00
PROP-0000078,9647 Pecan Blvd,Springfield,IL,62954,Springfield County,30.2739395,-95.1335924,1992,5000,STEEL,TILE,2,PRIMARY,B,5,614884.61,2020-06-15T00:00:00,2020-09-07T00:00:00
PROP-0000079,7037 Willow Ct,Lake Charles,LA,70056,Lake Charles County,30.2507232,-82.1485502,1961,2900,STEEL,TILE,1,SECONDARY,V,1,500024.78,2023-08-16T00:00:00,2023-09-10T00:00:00
PROP-0000080,2247 Birch Way,Los Angeles,CA,90930,Los Angeles County,28.0743814,-93.5147918,1993,4700,MASONRY,WOOD_SHAKE,2,VACANT,C,2,1456815.82,2024-04-18T00:00:00,2024-09-21T00:00:00
PROP-0000081,4018 Elm Pl,Asheville,NC,27657,Asheville County,36.531216,-98.9015467,1979,3600,STEEL,METAL,2,VACANT,V,2,1217788.1,2022-12-29T00:00:00,2023-02-02T00:00:00
PROP-0000082,9185 Bay Ave,Charlotte,NC,28625,Charlotte County,29.8460712,-90.4228595,2011,2500,STEEL,SLATE,1,VACANT,AE,2,1239718.62,2022-01-30T00:00:00,2022-04-29T00:00:00
PROP-0000083,8324 Magnolia Dr,Jacksonville,FL,33220,Jacksonville County,31.3735154,-122.759748,1956,1400,MANUFACTURED,WOOD_SHAKE,1,SECONDARY,V,1,487368.74,2022-03-22T00:00:00,2022-07-20T00:00:00
PROP-0000084,186 Bay Ave,Lafayette,LA,70042,Lafayette County,28.6661307,-117.4211368,2007,4600,WOOD,FLAT,1,RENTAL,VE,3,253024.65,2023-06-14T00:00:00,2023-08-14T00:00:00
PROP-0000085,8289 Birch St,Montgomery,AL,36683,Montgomery County,29.1129483,-117.682619,1958,3500,FRAME,SLATE,1,VACANT,V,1,823348.07,2020-08-15T00:00:00,2020-11-15T00:00:00
PROP-0000086,8416 Willow St,Fort Worth,TX,77470,Fort Worth County,25.7400852,-106.9772219,2019,3100,CONCRETE,WOOD_SHAKE,1,PRIMARY,C,2,1120776.25,2022-11-05T00:00:00,2023-04-14T00:00:00
PROP-0000087,826 Magnolia Ct,Fort Worth,TX,79132,Fort Worth County,39.1165222,-93.8739671,1992,3800,MANUFACTURED,TILE,2,PRIMARY,X500,1,496688.45,2020-09-30T00:00:00,2020-10-11T00:00:00
PROP-0000088,8544 Palm Pl,Charleston,SC,29414,Charleston County,37.8059456,-115.591449,1990,3000,FRAME,WOOD_SHAKE,1,PRIMARY,C,4,1343070.85,2021-09-27T00:00:00,2022-01-17T00:00:00
PROP-0000089,8251 Magnolia Ln,Huntsville,AL,35264,Huntsville County,26.3417591,-97.4920549,1973,1900,WOOD,METAL,1,PRIMARY,C,3,515224.12,2022-10-13T00:00:00,2023-03-16T00:00:00
PROP-0000090,7425 Oak Ct,Mobile,AL,36965,Mobile County,29.6674411,-80.8787997,2006,1100,FRAME,WOOD_SHAKE,2,RENTAL,V,1,282746.85,2021-12-20T00:00:00,2022-05-24T00:00:00
PROP-0000091,3966 Walnut Ct,Jackson,MS,39159,Jackson County,41.1409409,-122.5750457,1966,1700,MANUFACTURED,FLAT,3,RENTAL,X500,1,894968.93,2020-05-17T00:00:00,2020-09-29T00:00:00
PROP-0000092,4666 Pine Ave,Macon,GA,30033,Macon County,33.4837473,-106.9725553,1990,4300,FRAME,METAL,2,VACANT,VE,5,485519.17,2023-08-23T00:00:00,2023-12-26T00:00:00
PROP-0000093,7506 Cedar Pl,Charleston,SC,29197,Charleston County,41.448541,-80.590715,1967,5000,CONCRETE,WOOD_SHAKE,1,RENTAL,B,2,1090768.93,2020-05-31T00:00:00,2020-11-26T00:00:00
PROP-0000094,2088 Pine Blvd,Shreveport,LA,70373,Shreveport County,25.4468285,-99.6230568,2015,3100,STEEL,SLATE,1,PRIMARY,AE,3,645387.17,2021-04-04T00:00:00,2021-08-04T00:00:00
PROP-0000095,1308 Cedar Ct,Sacramento,CA,94119,Sacramento County,32.6495664,-94.0752044,2002,3000,MASONRY,SLATE,2,SECONDARY,V,4,794066.58,2023-03-23T00:00:00,2023-04-06T00:00:00
PROP-0000096,2797 Cedar Ct,Fort Worth,TX,79538,Fort Worth County,30.8823924,-82.6002216,1969,2600,FRAME,METAL,1,RENTAL,V,3,952488.16,2021-09-14T00:00:00,2021-10-07T00:00:00
PROP-0000097,2904 Pecan Ct,San Francisco,CA,95382,San Francisco County,25.7003032,-85.9936276,2024,1300,FRAME,WOOD_SHAKE,2,RENTAL,VE,5,671553.23,2020-11-11T00:00:00,2021-04-23T00:00:00
PROP-0000098,5049 Cypress Dr,Jacksonville,FL,34597,Jacksonville County,31.903573,-104.0440581,2019,1100,MASONRY,FLAT,2,VACANT,VE,3,941457.57,2021-08-16T00:00:00,2021-11-04T00:00:00
PROP-0000099,6170 Willow Ave,Augusta,GA,31040,Augusta County,32.9300336,-112.2312463,2001,2300,MASONRY,SHINGLE,1,VACANT,X,2,1447013.91,2020-09-24T00:00:00,2020-11-03T00:00:00
PROP-0000100,2710 Cypress Pl,Augusta,GA,31549,Augusta County,33.4552946,-120.0378398,1974,3300,WOOD,FLAT,3,SECONDARY,C,1,151767.37,2024-04-11T00:00:00,2024-08-15T00:00:00
PROP-0000101,233 Laurel Ave,Rockford,IL,61327,Rockford County,40.0017474,-91.9896452,1986,3300,CONCRETE,SHINGLE,2,SECONDARY,C,5,489814.41,2023-01-04T00:00:00,2023-04-12T00:00:00
PROP-0000102,2046 Cedar Ave,Sacramento,CA,92557,Sacramento County,38.5132529,-109.0802468,2020,3100,MASONRY,TILE,2,VACANT,A,1,135257.83,2021-07-26T00:00:00,2021-10-19T00:00:00
PROP-0000103,8546 Cedar Ct,Hattiesburg,MS,39550,Hattiesburg County,27.7625348,-80.4129075,1969,2700,WOOD,METAL,2,VACANT,B,4,1238363.34,2023-05-26T00:00:00,2023-08-28T00:00:00
PROP-0000104,5140 Walnut St,Atlanta,GA,31970,Atlanta County,29.5140174,-95.1539972,2003,4500,WOOD,TILE,2,VACANT,V,5,973215.84,2023-04-10T00:00:00,2023-09-15T00:00:00
PROP-0000105,9480 Hickory Ave,Mobile,AL,35612,Mobile County,32.4976556,-105.5736669,1981,3400,MANUFACTURED,TILE,2,VACANT,A,2,816530.16,2020-03-05T00:00:00,2020-07-26T00:00:00
PROP-0000106,5240 Cedar Pl,Macon,GA,31753,Macon County,34.2866447,-94.2617826,2017,4900,MANUFACTURED,METAL,2,SECONDARY,VE,3,872483.04,2022-02-10T00:00:00,2022-04-08T00:00:00
PROP-0000107,8111 Magnolia Pl,Wilmington,NC,28181,Wilmington County,40.8729064,-89.0021643,1976,2500,CONCRETE,SHINGLE,2,VACANT,X,3,1435544.59,2023-11-14T00:00:00,2023-12-21T00:00:00
PROP-0000108,1394 Magnolia Pl,Charlotte,NC,27871,Charlotte County,28.6377757,-87.570125,1986,2500,WOOD,WOOD_SHAKE,1,PRIMARY,VE,2,152086.91,2024-01-02T00:00:00,2024-05-16T00:00:00
PROP-0000109,6871 Magnolia Pl,Columbia,SC,29197,Columbia County,38.103023,-123.7720164,1956,4300,MASONRY,FLAT,2,VACANT,X500,2,1153393.7,2020-07-24T00:00:00,2020-10-05T00:00:00
PROP-0000110,1565 Pecan Dr,Augusta,GA,31714,Augusta County,40.5249053,-116.2971499,1957,1900,FRAME,FLAT,2,SECONDARY,B,1,93159.38,2024-04-23T00:00:00,2024-09-15T00:00:00
PROP-0000111,7544 Pecan Pl,Chicago,IL,62827,Chicago County,39.4680156,-103.4070862,1992,2000,FRAME,METAL,1,VACANT,B,2,99999.56,2021-08-05T00:00:00,2021-10-30T00:00:00
PROP-0000112,6743 Laurel Way,Raleigh,NC,28651,Raleigh County,26.4745421,-94.5527424,1972,1900,MASONRY,FLAT,1,SECONDARY,A,3,624675.63,2023-06-05T00:00:00,2023-09-27T00:00:00
PROP-0000113,9486 Oak Ln,Wilmington,NC,28198,Wilmington County,29.0171438,-94.6174109,1988,3700,CONCRETE,TILE,2,RENTAL,AE,3,601912.34,2023-04-07T00:00:00,2023-06-02T00:00:00
PROP-0000114,7554 Hickory Ct,Columbia,SC,29699,Columbia County,34.3369866,-103.2835646,2011,4200,MANUFACTURED,TILE,2,PRIMARY,X500,5,1079347.9,2020-11-09T00:00:00,2020-11-28T00:00:00
PROP-0000115,8381 Pine Blvd,Chicago,IL,60551,Chicago County,39.5262621,-104.5590157,1957,2100,MANUFACTURED,SLATE,2,VACANT,A,4,267360.96,2023-01-26T00:00:00,2023-05-12T00:00:00
PROP-0000116,5149 Hickory St,Jackson,MS,39242,Jackson County,38.8797048,-91.1846028,2021,4500,FRAME,SHINGLE,2,PRIMARY,A,1,1480314.89,2022-08-04T00:00:00,2022-12-02T00:00:00
PROP-0000117,2318 Walnut Way,Orlando,FL,33158,Orlando County,32.6251313,-83.6469366,2002,3200,STEEL,SHINGLE,2,SECONDARY,C,1,333432.55,2021-01-03T00:00:00,2021-05-20T00:00:00
PROP-0000118,472 Elm Pl,Mobile,AL,36764,Mobile County,34.0428713,-87.7721408,1978,2300,STEEL,METAL,1,SECONDARY,AE,1,1229459.02,2020-01-08T00:00:00,2020-04-24T00:00:00
PROP-0000119,1202 Maple St,Chicago,IL,61486,Chicago County,36.4244018,-85.6226536,1980,2300,MANUFACTURED,SHINGLE,2,SECONDARY,VE,1,278992.52,2021-02-26T00:00:00,2021-05-11T00:00:00
PROP-0000120,5353 Pine Ln,Myrtle Beach,SC,29294,Myrtle Beach County,33.8612679,-105.8033509,2023,2500,FRAME,SLATE,3,SECONDARY,X,5,783781.52,2023-05-09T00:00:00,2023-08-05T00:00:00
PROP-0000121,2544 Elm Way,Huntsville,AL,35578,Huntsville County,33.0498199,-86.628999,2003,2700,MANUFACTURED,TILE,2,PRIMARY,X,4,871347.2,2022-04-16T00:00:00,2022-05-20T00:00:00
PROP-0000122,5511 Pecan Ave,Mobile,AL,36457,Mobile County,26.5718879,-92.1182727,1982,2000,FRAME,METAL,1,PRIMARY,AE,2,1222603.88,2021-02-20T00:00:00,2021-07-20T00:00:00
PROP-0000123,5555 Elm St,San Francisco,CA,91334,San Francisco County,41.3553185,-118.8380872,2011,3800,MASONRY,WOOD_SHAKE,2,SECONDARY,X,2,863952.6,2021-03-03T00:00:00,2021-05-14T00:00:00
PROP-0000124,5986 Elm Ln,Montgomery,AL,36175,Montgomery County,40.0078032,-103.4958211,2018,3800,CONCRETE,TILE,1,VACANT,A,5,1307000.47,2023-08-21T00:00:00,2023-09-27T00:00:00
PROP-0000125,9588 Hickory Way,Orlando,FL,32929,Orlando County,28.3352603,-113.8791805,2020,4400,MASONRY,FLAT,2,RENTAL,B,4,1452441.74,2023-04-11T00:00:00,2023-09-22T00:00:00
PROP-0000126,5870 Cedar Blvd,Hattiesburg,MS,39779,Hattiesburg County,33.3013775,-83.6564269,1971,4200,MANUFACTURED,SHINGLE,2,PRIMARY,A,1,665596.96,2024-02-09T00:00:00,2024-07-19T00:00:00
PROP-0000127,3683 Willow Pl,Charleston,SC,29517,Charleston County,35.503199,-94.6627919,1969,4700,STEEL,WOOD_SHAKE,2,PRIMARY,X,1,103751.13,2020-01-19T00:00:00,2020-03-29T00:00:00
PROP-0000128,7154 Walnut Blvd,San Diego,CA,90622,San Diego County,33.9145518,-113.3973714,1952,4700,WOOD,METAL,2,RENTAL,X,1,609733.25,2022-10-25T00:00:00,2023-02-05T00:00:00
PROP-0000129,1420 Pecan St,Gulfport,MS,38761,Gulfport County,31.4474884,-99.6811367,1978,1100,MANUFACTURED,SHINGLE,2,PRIMARY,X500,4,995768.28,2021-09-06T00:00:00,2021-11-29T00:00:00
PROP-0000130,3864 Pine Pl,Chicago,IL,60815,Chicago County,40.7107075,-93.8851353,2017,2500,WOOD,SLATE,2,SECONDARY,C,1,1445286.25,2020-03-28T00:00:00,2020-08-25T00:00:00
PROP-0000131,2761 Birch Dr,Lafayette,LA,70959,Lafayette County,36.5095944,-100.215253,1959,3200,MANUFACTURED,TILE,2,PRIMARY,C,1,218713.82,2021-09-04T00:00:00,2021-11-02T00:00:00
PROP-0000132,5447 Oak Ln,Austin,TX,77872,Austin County,28.8783526,-99.6663401,2000,3200,STEEL,TILE,2,VACANT,AE,5,499438.86,2024-05-03T00:00:00,2024-07-05T00:00:00
PROP-0000133,6325 Hickory Blvd,Houston,TX,79759,Houston County,30.3835299,-119.3117596,1984,800,CONCRETE,FLAT,1,RENTAL,AE,2,203962.07,2020-11-11T00:00:00,2021-03-01T00:00:00
PROP-0000134,1568 Magnolia Ave,Hattiesburg,MS,39586,Hattiesburg County,38.3354583,-85.9964002,1963,800,CONCRETE,FLAT,1,PRIMARY,VE,5,819968.43,2020-02-23T00:00:00,2020-08-16T00:00:00
PROP-0000135,5033 Elm Pl,Mobile,AL,35418,Mobile County,27.8425258,-111.8576776,1967,2700,STEEL,SHINGLE,1,SECONDARY,X500,5,955669.68,2021-07-04T00:00:00,2021-10-29T00:00:00
PROP-0000136,6583 Magnolia Way,Dallas,TX,77166,Dallas County,30.6905158,-88.1190793,1988,4900,WOOD,TILE,1,SECONDARY,X500,3,332244.93,2020-01-14T00:00:00,2020-04-24T00:00:00
PROP-0000137,4071 Magnolia Way,Augusta,GA,30860,Augusta County,31.2052641,-82.9890453,2012,2000,WOOD,SLATE,1,PRIMARY,X500,2,702606.04,2023-03-25T00:00:00,2023-06-07T00:00:00
PROP-0000138,5061 Pine Ln,San Antonio,TX,79229,San Antonio County,37.1590187,-89.2806224,2013,1200,STEEL,SLATE,2,VACANT,X,5,132206.53,2020-10-12T00:00:00,2021-01-12T00:00:00
PROP-0000139,4167 Pecan Ct,Los Angeles,CA,91092,Los Angeles County,35.4155243,-99.2183071,1963,4900,MANUFACTURED,WOOD_SHAKE,1,RENTAL,X,1,94977.84,2024-04-23T00:00:00,2024-06-28T00:00:00
PROP-0000140,6508 Cypress Blvd,Columbia,SC,29513,Columbia County,33.2071084,-111.0009823,2007,1300,FRAME,WOOD_SHAKE,1,RENTAL,C,4,1193663.4,2022-02-05T00:00:00,2022-06-18T00:00:00
PROP-0000141,7278 Hickory Pl,Biloxi,MS,39118,Biloxi County,30.1044894,-88.3518188,2010,1500,FRAME,METAL,2,SECONDARY,VE,5,327723.59,2020-07-18T00:00:00,2020-08-27T00:00:00
PROP-0000142,6736 Pecan Blvd,Macon,GA,30591,Macon County,36.1742345,-106.5943754,2009,4700,MASONRY,FLAT,2,VACANT,A,2,372213.96,2021-04-19T00:00:00,2021-10-16T00:00:00
PROP-0000143,3163 Magnolia Ct,Fort Worth,TX,76268,Fort Worth County,26.9372345,-94.4891372,1963,3900,WOOD,WOOD_SHAKE,1,VACANT,X,5,242209.54,2023-01-04T00:00:00,2023-04-04T00:00:00
PROP-0000144,9769 Maple Blvd,Gulfport,MS,39125,Gulfport County,29.0557363,-118.8542482,1988,3100,MANUFACTURED,TILE,2,VACANT,V,5,624868.15,2023-06-12T00:00:00,2023-07-29T00:00:00
PROP-0000145,8122 Elm Blvd,Gulfport,MS,38850,Gulfport County,39.3137486,-96.7459609,2021,3000,FRAME,FLAT,1,VACANT,X500,4,1052269.27,2020-12-07T00:00:00,2021-03-23T00:00:00
PROP-0000146,9363 Oak Dr,Hattiesburg,MS,39014,Hattiesburg County,29.6724996,-100.3452208,1971,1800,STEEL,SLATE,2,VACANT,AE,5,242173.44,2020-06-18T00:00:00,2020-11-04T00:00:00
PROP-0000147,3680 Palm Ave,Atlanta,GA,30748,Atlanta County,39.8717674,-122.5818626,2006,2400,CONCRETE,SHINGLE,2,PRIMARY,VE,2,1231197.86,2023-01-23T00:00:00,2023-06-22T00:00:00
PROP-0000148,2381 Walnut Dr,Macon,GA,30617,Macon County,34.6912639,-100.5796449,1971,4600,WOOD,TILE,1,RENTAL,B,5,459627.15,2023-06-15T00:00:00,2023-10-24T00:00:00
PROP-0000149,4643 Laurel Blvd,Dallas,TX,79426,Dallas County,29.2445131,-92.6986267,2002,2300,MANUFACTURED,FLAT,2,RENTAL,X,4,721828.25,2020-05-01T00:00:00,2020-10-10T00:00:00
PROP-0000150,4658 Hickory Ct,San Antonio,TX,77972,San Antonio County,30.5639178,-123.8911843,2015,1300,MANUFACTURED,FLAT,2,RENTAL,AE,5,644756.53,2024-03-15T00:00:00,2024-07-02T00:00:00
PROP-0000151,4746 Magnolia Blvd,Greenville,SC,29972,Greenville County,38.4011621,-84.657195,1984,1100,FRAME,SHINGLE,2,VACANT,A,1,1399794.68,2021-10-23T00:00:00,2021-12-02T00:00:00
PROP-0000152,3414 Hickory Blvd,Hattiesburg,MS,39648,Hattiesburg County,27.7026169,-82.9600752,1950,2500,FRAME,WOOD_SHAKE,1,PRIMARY,C,2,153537.93,2022-05-26T00:00:00,2022-11-02T00:00:00
PROP-0000153,1594 Hickory Ave,Raleigh,NC,27037,Raleigh County,33.105714,-118.1612092,2004,2200,WOOD,WOOD_SHAKE,2,PRIMARY,C,1,1483179.97,2023-09-04T00:00:00,2023-12-21T00:00:00
PROP-0000154,6376 Maple Ave,Lafayette,LA,70150,Lafayette County,31.2485487,-110.8327656,1959,3200,MASONRY,WOOD_SHAKE,3,SECONDARY,AE,5,879873.52,2021-04-13T00:00:00,2021-09-16T00:00:00
PROP-0000155,3590 Pecan Blvd,Lafayette,LA,71462,Lafayette County,35.4732922,-104.5351097,1994,2100,FRAME,SHINGLE,1,PRIMARY,X,3,1447813.17,2024-01-19T00:00:00,2024-04-08T00:00:00
PROP-0000156,1480 Pine Ln,Baton Rouge,LA,71298,Baton Rouge County,25.4560149,-86.7289191,1985,2700,MASONRY,SLATE,2,SECONDARY,X,3,997561.08,2023-08-13T00:00:00,2023-10-13T00:00:00
PROP-0000157,8285 Pecan Ave,Hattiesburg,MS,39411,Hattiesburg County,41.7770031,-82.9073263,1964,1600,STEEL,SLATE,2,SECONDARY,X500,1,103698.95,2021-05-08T00:00:00,2021-05-25T00:00:00
PROP-0000158,1090 Walnut Way,Orlando,FL,33646,Orlando County,35.6857018,-101.9538455,1977,3400,STEEL,WOOD_SHAKE,2,SECONDARY,B,1,520067.78,2020-03-22T00:00:00,2020-07-30T00:00:00
PROP-0000159,6501 Birch Ave,Columbia,SC,29499,Columbia County,32.4372627,-82.049169,2018,2300,FRAME,TILE,1,VACANT,AE,4,949461.45,2021-10-31T00:00:00,2021-11-14T00:00:00
PROP-0000160,2348 Hickory St,Raleigh,NC,27573,Raleigh County,41.2012754,-100.987764,1965,2400,MASONRY,METAL,1,RENTAL,AE,1,555715.66,2020-01-26T00:00:00,2020-05-14T00:00:00
PROP-0000161,9547 Pecan Ave,Charlotte,NC,28568,Charlotte County,33.683292,-121.5606791,1983,4400,MASONRY,METAL,1,PRIMARY,AE,2,1131907.55,2023-12-29T00:00:00,2023-12-29T00:00:00
PROP-0000162,7829 Magnolia Way,Miami,FL,34929,Miami County,28.0423359,-81.7449456,1981,1000,WOOD,WOOD_SHAKE,2,VACANT,VE,3,432533.72,2020-04-04T00:00:00,2020-06-24T00:00:00
PROP-0000163,2056 Willow St,Charlotte,NC,27538,Charlotte County,38.6737463,-80.81779,2023,3300,FRAME,FLAT,2,RENTAL,C,1,865389.78,2022-02-02T00:00:00,2022-02-04T00:00:00
PROP-0000164,5079 Hickory Dr,Savannah,GA,31457,Savannah County,35.0587459,-102.2921303,1987,2000,MANUFACTURED,SLATE,2,SECONDARY,V,1,1404004.5,2023-02-28T00:00:00,2023-03-06T00:00:00
PROP-0000165,123 Walnut Way,Myrtle Beach,SC,29423,Myrtle Beach County,28.4883043,-80.7429074,1951,3400,STEEL,SHINGLE,3,SECONDARY,B,1,142338.38,2021-11-17T00:00:00,2022-01-15T00:00:00
PROP-0000166,1491 Birch Ave,Sacramento,CA,93227,Sacramento County,35.8326666,-106.6485433,1997,4500,WOOD,SHINGLE,2,SECONDARY,VE,3,450607.13,2022-07-27T00:00:00,2022-10-15T00:00:00
PROP-0000167,4555 Pine Ave,Huntsville,AL,35627,Huntsville County,38.2589287,-98.2728464,1990,1700,FRAME,TILE,2,RENTAL,X,1,841012.86,2022-07-16T00:00:00,2022-09-07T00:00:00
PROP-0000168,2064 Maple Blvd,Biloxi,MS,39648,Biloxi County,39.0485737,-93.3373687,2009,1000,MASONRY,METAL,1,SECONDARY,C,4,809112.74,2021-06-26T00:00:00,2021-12-16T00:00:00
PROP-0000169,6725 Laurel Pl,Wilmington,NC,28780,Wilmington County,29.2474947,-103.670097,1972,1600,FRAME,SHINGLE,1,SECONDARY,V,2,1249616.25,2020-03-04T00:00:00,2020-06-07T00:00:00
PROP-0000170,457 Maple Dr,Fort Worth,TX,79166,Fort Worth County,38.7580773,-119.9529399,1983,2900,FRAME,SHINGLE,3,PRIMARY,V,5,695082.06,2020-06-02T00:00:00,2020-09-11T00:00:00
PROP-0000171,7090 Cedar Ct,Jackson,MS,38933,Jackson County,29.6746901,-104.3754971,1998,1700,FRAME,SLATE,2,SECONDARY,B,4,665028.93,2023-10-31T00:00:00,2024-03-19T00:00:00
PROP-0000172,6375 Cedar Way,Jackson,MS,38992,Jackson County,40.0390928,-100.8641814,1961,4800,WOOD,SHINGLE,3,RENTAL,X500,5,1189637.85,2021-07-26T00:00:00,2021-10-22T00:00:00
PROP-0000173,3046 Oak Ct,Naperville,IL,61938,Naperville County,25.4981588,-88.3296679,1999,2500,FRAME,FLAT,2,SECONDARY,V,1,431957.02,2021-07-07T00:00:00,2021-09-06T00:00:00
PROP-0000174,6463 Magnolia Blvd,Charlotte,NC,27540,Charlotte County,35.0728317,-88.5267501,1978,3000,WOOD,SHINGLE,2,RENTAL,V,5,1426683.28,2023-03-25T00:00:00,2023-07-29T00:00:00
PROP-0000175,721 Maple St,San Diego,CA,91487,San Diego County,28.719752,-100.8362654,1972,800,CONCRETE,SLATE,1,SECONDARY,C,2,1384668.72,2022-10-01T00:00:00,2022-12-22T00:00:00
PROP-0000176,2420 Walnut Ave,Miami,FL,34777,Miami County,39.6313809,-81.735415,1968,3100,MANUFACTURED,WOOD_SHAKE,1,PRIMARY,C,3,538096.55,2023-04-16T00:00:00,2023-05-26T00:00:00
PROP-0000177,9307 Hickory Ct,Montgomery,AL,35795,Montgomery County,35.0121526,-116.2845283,1990,2700,MANUFACTURED,WOOD_SHAKE,1,SECONDARY,A,5,636074.03,2020-12-22T00:00:00,2021-05-16T00:00:00
PROP-0000178,3719 Pecan Ave,Tampa,FL,34973,Tampa County,27.3909373,-91.2048936,1990,2300,CONCRETE,METAL,1,PRIMARY,C,4,96181.78,2023-06-06T00:00:00,2023-07-29T00:00:00
PROP-0000179,1870 Hickory St,Charleston,SC,29059,Charleston County,32.4497424,-105.5352579,1994,1800,STEEL,FLAT,2,RENTAL,X,1,1256905.91,2021-06-09T00:00:00,2021-11-03T00:00:00
PROP-0000180,647 Elm St,Columbia,SC,29543,Columbia County,41.1782562,-120.7351823,2007,1800,STEEL,TILE,2,PRIMARY,C,5,1479092.06,2020-05-30T00:00:00,2020-09-30T00:00:00
PROP-0000181,7213 Cedar St,Jacksonville,FL,32352,Jacksonville County,28.4943581,-115.6406927,1971,4300,MANUFACTURED,WOOD_SHAKE,2,RENTAL,B,2,216200.61,2023-05-28T00:00:00,2023-09-05T00:00:00
PROP-0000182,6011 Oak Way,Rockford,IL,60247,Rockford County,39.0062542,-96.495998,1969,3800,MASONRY,SHINGLE,1,SECONDARY,B,1,752470.32,2020-04-21T00:00:00,2020-05-20T00:00:00
PROP-0000183,4441 Maple Way,Asheville,NC,27557,Asheville County,40.0533758,-107.7463267,2010,3600,FRAME,METAL,2,RENTAL,VE,3,881230.15,2022-09-28T00:00:00,2022-11-05T00:00:00
PROP-0000184,6882 Walnut Dr,Houston,TX,78517,Houston County,39.2935518,-87.9901705,1994,3400,WOOD,WOOD_SHAKE,2,VACANT,VE,4,504369.99,2023-01-13T00:00:00,2023-04-24T00:00:00
PROP-0000185,9463 Pecan Blvd,Fort Lauderdale,FL,32367,Fort Lauderdale County,27.9389425,-80.6878084,2023,2100,MASONRY,TILE,1,PRIMARY,X,2,1496122.3,2022-11-24T00:00:00,2023-05-03T00:00:00
PROP-0000186,1197 Maple Way,Lake Charles,LA,70860,Lake Charles County,34.3849213,-86.3085361,1983,4100,STEEL,SHINGLE,2,VACANT,AE,4,292492.09,2021-10-16T00:00:00,2022-03-10T00:00:00
PROP-0000187,1754 Walnut Ln,Chicago,IL,62778,Chicago County,39.9623083,-85.3726832,1963,2400,STEEL,WOOD_SHAKE,2,VACANT,A,2,471088.08,2023-02-26T00:00:00,2023-04-03T00:00:00
PROP-0000188,5531 Hickory Dr,Rockford,IL,60170,Rockford County,40.6541947,-84.5306201,1954,900,CONCRETE,METAL,1,VACANT,AE,2,270827.44,2022-03-21T00:00:00,2022-07-12T00:00:00
PROP-0000189,1562 Pine Pl,Augusta,GA,30662,Augusta County,37.5960616,-90.582295,2003,3100,FRAME,SLATE,2,PRIMARY,B,5,652806.9,2023-05-23T00:00:00,2023-10-04T00:00:00
PROP-0000190,3388 Laurel St,Chicago,IL,60714,Chicago County,32.7596273,-83.6066329,1972,2000,CONCRETE,METAL,2,VACANT,AE,1,423552.09,2021-01-29T00:00:00,2021-06-03T00:00:00
PROP-0000191,9715 Willow Ct,Rockford,IL,61130,Rockford County,39.2401141,-112.6189632,1972,1300,CONCRETE,SHINGLE,1,SECONDARY,VE,2,999279.45,2022-08-29T00:00:00,2023-02-18T00:00:00
PROP-0000192,428 Laurel St,Myrtle Beach,SC,29726,Myrtle Beach County,36.0053164,-97.5497542,2002,800,MASONRY,METAL,2,RENTAL,B,4,1351585.82,2022-11-17T00:00:00,2023-02-14T00:00:00
PROP-0000193,5050 Pecan Way,Biloxi,MS,39523,Biloxi County,25.1249087,-80.0251073,1977,3100,WOOD,WOOD_SHAKE,2,RENTAL,B,1,764068.55,2022-08-13T00:00:00,2022-11-07T00:00:00
PROP-0000194,4995 Pine Blvd,Wilmington,NC,28640,Wilmington County,40.2946798,-88.5610878,1985,4600,STEEL,WOOD_SHAKE,1,SECONDARY,A,4,1496406.12,2021-06-18T00:00:00,2021-08-23T00:00:00
PROP-0000195,678 Birch Dr,Montgomery,AL,36038,Montgomery County,36.6674079,-95.914202,1999,3800,MANUFACTURED,METAL,2,SECONDARY,V,3,218596.35,2024-02-17T00:00:00,2024-03-20T00:00:00
PROP-0000196,1563 Pine Ct,Raleigh,NC,27749,Raleigh County,32.1480337,-84.9788838,1992,3100,CONCRETE,SLATE,1,PRIMARY,X500,1,1310278.58,2023-09-02T00:00:00,2024-01-29T00:00:00
PROP-0000197,8299 Maple Way,Chicago,IL,61648,Chicago County,32.0228233,-85.6826376,2010,1700,MASONRY,TILE,1,VACANT,V,3,1304599.4,2021-02-02T00:00:00,2021-03-20T00:00:00
PROP-0000198,2997 Magnolia St,San Antonio,TX,75067,San Antonio County,29.6499737,-90.5074956,1992,1800,WOOD,TILE,2,PRIMARY,V,5,695870.21,2023-07-16T00:00:00,2023-11-02T00:00:00
PROP-0000199,176 Oak Dr,Montgomery,AL,36111,Montgomery County,40.1641087,-90.6986995,2011,4100,MASONRY,SHINGLE,2,SECONDARY,VE,3,523171.01,2022-02-24T00:00:00,2022-03-22T00:00:00
PROP-0000200,849 Elm Ln,Huntsville,AL,36476,Huntsville County,35.1382886,-109.1352533,1971,1600,CONCRETE,FLAT,1,SECONDARY,V,4,107157.12,2020-05-13T00:00:00,2020-07-09T00:00:00
PROP-0000201,8367 Cedar Ave,Baton Rouge,LA,70593,Baton Rouge County,38.4661616,-107.491533,1952,4800,CONCRETE,SLATE,2,PRIMARY,AE,1,148493.78,2023-04-22T00:00:00,2023-05-21T00:00:00
PROP-0000202,9066 Elm Pl,Montgomery,AL,35436,Montgomery County,36.8182645,-96.266301,1998,2700,STEEL,WOOD_SHAKE,1,RENTAL,V,4,1259526.86,2020-09-10T00:00:00,2020-10-06T00:00:00
PROP-0000203,1841 Cypress Dr,Los Angeles,CA,93835,Los Angeles County,38.2253016,-87.4140519,1986,2000,CONCRETE,WOOD_SHAKE,2,SECONDARY,A,5,784823.69,2020-08-21T00:00:00,2020-10-13T00:00:00
PROP-0000204,308 Pecan Ave,Biloxi,MS,38783,Biloxi County,36.3733728,-117.4376423,1980,1300,WOOD,SHINGLE,2,PRIMARY,B,2,728586.75,2020-01-06T00:00:00,2020-03-21T00:00:00
PROP-0000205,2962 Laurel St,Asheville,NC,27956,Asheville County,38.6271337,-110.2408873,1956,1500,FRAME,SHINGLE,1,SECONDARY,V,3,587688.91,2020-07-23T00:00:00,2020-11-12T00:00:00
PROP-0000206,5715 Cedar Ave,Naperville,IL,61261,Naperville County,41.3592688,-112.039344,1961,3200,MANUFACTURED,FLAT,2,SECONDARY,AE,2,1068561.22,2022-02-02T00:00:00,2022-02-17T00:00:00
PROP-0000207,8008 Walnut Pl,New Orleans,LA,70288,New Orleans County,31.4557632,-108.2216477,2003,900,MANUFACTURED,WOOD_SHAKE,3,SECONDARY,X500,4,240371.22,2023-04-24T00:00:00,2023-08-07T00:00:00
PROP-0000208,5248 Oak Dr,Jackson,MS,39653,Jackson County,33.8246945,-93.7173677,1958,4700,FRAME,FLAT,2,SECONDARY,X500,3,1022469.11,2021-06-19T00:00:00,2021-11-30T00:00:00
PROP-0000209,994 Oak Blvd,Mobile,AL,36670,Mobile County,39.4818096,-85.7457121,2021,1200,STEEL,METAL,1,RENTAL,A,5,396243.26,2023-06-09T00:00:00,2023-11-20T00:00:00
PROP-0000210,7621 Cypress Pl,Montgomery,AL,35273,Montgomery County,32.600158,-118.7768985,1980,3900,MANUFACTURED,WOOD_SHAKE,1,VACANT,X,1,871126.04,2020-06-10T00:00:00,2020-06-10T00:00:00
PROP-0000211,9313 Pine Pl,Fort Worth,TX,77156,Fort Worth County,39.0302868,-88.0700978,1988,3700,CONCRETE,SLATE,2,VACANT,C,4,241913.17,2022-11-07T00:00:00,2023-04-24T00:00:00
PROP-0000212,4883 Willow Ct,Charleston,SC,29115,Charleston County,40.246911,-102.3334257,1993,3400,FRAME,METAL,2,SECONDARY,AE,4,386137.1,2021-12-28T00:00:00,2022-02-14T00:00:00
PROP-0000213,9747 Maple Pl,Atlanta,GA,31494,Atlanta County,35.0183748,-101.8153066,2003,3900,FRAME,SLATE,2,VACANT,X500,5,1189135.73,2020-04-05T00:00:00,2020-05-20T00:00:00
PROP-0000214,6447 Pecan Ct,Springfield,IL,61659,Springfield County,32.1173007,-97.2042775,1966,2300,CONCRETE,FLAT,3,RENTAL,X500,2,276215.61,2020-07-31T00:00:00,2021-01-01T00:00:00
PROP-0000215,9169 Pecan Dr,San Diego,CA,91236,San Diego County,35.610849,-111.2145022,2020,3000,MANUFACTURED,TILE,3,SECONDARY,C,1,1160300.54,2021-10-04T00:00:00,2022-02-24T00:00:00
PROP-0000216,7020 Walnut St,Hattiesburg,MS,39423,Hattiesburg County,25.4296264,-117.6056247,2018,5000,FRAME,TILE,1,SECONDARY,B,3,287928.31,2021-08-08T00:00:00,2021-08-23T00:00:00
PROP-0000217,5976 Laurel Pl,Raleigh,NC,27388,Raleigh County,39.7566014,-91.4623309,2019,2200,MANUFACTURED,WOOD_SHAKE,2,SECONDARY,B,1,1395608.43,2020-03-07T00:00:00,2020-06-14T00:00:00
PROP-0000218,312 Hickory Ln,Huntsville,AL,35689,Huntsville County,39.7704493,-86.1404315,2020,3600,MASONRY,WOOD_SHAKE,2,RENTAL,VE,2,497732.36,2020-04-20T00:00:00,2020-06-04T00:00:00
PROP-0000219,8518 Maple Way,Dallas,TX,75264,Dallas County,29.7449082,-112.3734578,1972,1800,WOOD,METAL,1,VACANT,V,1,298258.8,2024-02-14T00:00:00,2024-05-06T00:00:00
PROP-0000220,9482 Willow Ct,Chicago,IL,60250,Chicago County,33.9317161,-81.8925404,1988,4100,FRAME,SLATE,1,VACANT,AE,3,394101.28,2022-10-01T00:00:00,2022-11-24T00:00:00
PROP-0000221,3679 Walnut Pl,Augusta,GA,31793,Augusta County,25.1496628,-94.5667074,1996,3600,MASONRY,WOOD_SHAKE,2,SECONDARY,A,3,621549.1,2021-08-24T00:00:00,2021-09-22T00:00:00
PROP-0000222,4733 Oak Ct,Huntsville,AL,36675,Huntsville County,32.5744673,-122.0705269,2019,4900,MASONRY,METAL,2,PRIMARY,V,5,837152.27,2024-01-22T00:00:00,2024-06-30T00:00:00
PROP-0000223,7050 Laurel Ave,Dallas,TX,76378,Dallas County,39.0887274,-85.3399618,1977,3500,MANUFACTURED,SHINGLE,2,SECONDARY,A,4,1097952.96,2023-11-04T00:00:00,2023-11-13T00:00:00
PROP-0000224,4227 Willow Ave,Houston,TX,78639,Houston County,40.4867718,-106.0641577,1956,3600,MANUFACTURED,FLAT,2,PRIMARY,X,1,839464.81,2020-12-30T00:00:00,2021-06-12T00:00:00
PROP-0000225,1289 Magnolia Ave,Chicago,IL,60997,Chicago County,30.1229621,-120.1937703,2024,3600,STEEL,FLAT,2,PRIMARY,X500,2,837524.22,2020-04-03T00:00:00,2020-05-07T00:00:00
PROP-0000226,6213 Oak Blvd,Huntsville,AL,35315,Huntsville County,25.0855073,-97.747185,1968,4200,WOOD,SHINGLE,1,RENTAL,VE,4,1365991.8,2021-09-02T00:00:00,2022-01-11T00:00:00
PROP-0000227,4240 Pine Ave,Baton Rouge,LA,70295,Baton Rouge County,38.5942209,-86.5009504,1973,4300,STEEL,WOOD_SHAKE,2,RENTAL,AE,3,219447.41,2021-03-28T00:00:00,2021-08-23T00:00:00
PROP-0000228,3942 Maple Ln,Biloxi,MS,39518,Biloxi County,40.302016,-110.0174188,1995,3600,CONCRETE,SLATE,2,SECONDARY,C,3,1441295.67,2020-09-19T00:00:00,2020-11-01T00:00:00
PROP-0000229,3729 Hickory Way,Orlando,FL,32856,Orlando County,27.2831992,-91.749197,1981,3800,STEEL,FLAT,1,RENTAL,X500,5,234542.34,2024-05-28T00:00:00,2024-11-09T00:00:00
PROP-0000230,8924 Pine Ln,Chicago,IL,62390,Chicago County,26.2998604,-120.6824019,1985,900,WOOD,WOOD_SHAKE,1,VACANT,VE,1,863263.48,2020-10-13T00:00:00,2021-03-01T00:00:00
PROP-0000231,6530 Pine Ln,Sacramento,CA,90869,Sacramento County,33.5190939,-120.0156229,1969,3100,WOOD,SHINGLE,2,SECONDARY,V,4,306095.83,2022-01-19T00:00:00,2022-06-12T00:00:00
PROP-0000232,762 Pine Pl,Springfield,IL,60718,Springfield County,29.494071,-113.7031786,2011,5000,MASONRY,SLATE,3,RENTAL,X,4,1383420.76,2022-01-04T00:00:00,2022-01-15T00:00:00
PROP-0000233,8642 Pecan Ln,Naples,FL,34643,Naples County,34.8367344,-98.9129533,1991,3200,MANUFACTURED,FLAT,1,PRIMARY,B,4,1461197.23,2020-07-30T00:00:00,2020-09-25T00:00:00
PROP-0000234,8076 Walnut Pl,Sacramento,CA,95687,Sacramento County,25.1121607,-85.1904933,1995,3600,MASONRY,TILE,1,RENTAL,VE,2,345406.06,2021-12-07T00:00:00,2022-03-09T00:00:00
PROP-0000235,5510 Hickory Ave,Chicago,IL,61596,Chicago County,33.1398489,-114.7290262,1979,1800,MANUFACTURED,FLAT,1,PRIMARY,V,5,921133.68,2022-04-29T00:00:00,2022-06-02T00:00:00
PROP-0000236,1016 Cedar Ln,Los Angeles,CA,95933,Los Angeles County,33.7828918,-106.1599221,2023,4400,MANUFACTURED,SHINGLE,2,RENTAL,AE,2,717868.77,2020-10-27T00:00:00,2021-02-24T00:00:00
PROP-0000237,9944 Cedar Blvd,Gulfport,MS,39594,Gulfport County,33.6836834,-116.6202451,1978,2900,STEEL,SLATE,2,SECONDARY,X,4,267742.74,2022-04-21T00:00:00,2022-04-25T00:00:00
PROP-0000238,1677 Cedar Pl,Greenville,SC,29986,Greenville County,25.6636216,-89.5097977,1969,4000,FRAME,SHINGLE,2,SECONDARY,A,4,821302.81,2023-05-25T00:00:00,2023-08-27T00:00:00
PROP-0000239,3859 Walnut Pl,Naples,FL,34558,Naples County,30.9588028,-88.5966743,2017,4400,FRAME,FLAT,1,VACANT,VE,1,482238.67,2022-05-28T00:00:00,2022-10-14T00:00:00
PROP-0000240,216 Birch Ave,Huntsville,AL,36610,Huntsville County,31.375508,-114.9615774,1974,2800,STEEL,METAL,1,VACANT,B,3,1294067.24,2020-01-12T00:00:00,2020-04-29T00:00:00
PROP-0000241,6611 Walnut Dr,Naperville,IL,61380,Naperville County,38.3244031,-102.7714187,1985,3100,WOOD,SLATE,2,RENTAL,C,4,1124811.05,2023-10-25T00:00:00,2024-04-10T00:00:00
PROP-0000242,2750 Maple Dr,Corpus Christi,TX,78261,Corpus Christi County,38.3633791,-88.7624357,1979,4700,MANUFACTURED,WOOD_SHAKE,2,SECONDARY,X,1,1222204.49,2022-07-03T00:00:00,2022-08-09T00:00:00
PROP-0000243,4410 Pine Ct,Hattiesburg,MS,38787,Hattiesburg County,25.6418408,-107.0896555,1961,3300,WOOD,WOOD_SHAKE,2,PRIMARY,V,4,703340.31,2020-05-11T00:00:00,2020-07-01T00:00:00
PROP-0000244,9922 Willow Dr,San Diego,CA,93931,San Diego County,36.4584145,-108.1714401,1974,4900,FRAME,TILE,1,RENTAL,X,3,1030920.11,2020-03-09T00:00:00,2020-06-20T00:00:00
PROP-0000245,1224 Bay Ave,Springfield,IL,61746,Springfield County,37.3443581,-99.3989899,2016,4500,CONCRETE,METAL,3,RENTAL,VE,5,1447541.14,2020-02-01T00:00:00,2020-05-27T00:00:00
PROP-0000246,6770 Willow Ave,Birmingham,AL,36719,Birmingham County,33.5538758,-109.0415006,1983,1500,WOOD,METAL,2,RENTAL,X500,4,879699.42,2020-12-24T00:00:00,2021-02-24T00:00:00
PROP-0000247,548 Cypress Ave,Macon,GA,30818,Macon County,31.5054452,-89.2991352,2008,2200,MANUFACTURED,WOOD_SHAKE,1,RENTAL,X,3,813435.99,2023-04-16T00:00:00,2023-04-18T00:00:00
PROP-0000248,6636 Pecan Ct,Raleigh,NC,27280,Raleigh County,40.8337361,-103.03156,1986,3000,MASONRY,SLATE,1,SECONDARY,X500,2,413503.15,2020-07-09T00:00:00,2020-09-08T00:00:00
PROP-0000249,4191 Laurel Ct,Raleigh,NC,27423,Raleigh County,27.0379344,-120.5465468,1979,5000,STEEL,SLATE,1,PRIMARY,X500,3,961347.81,2021-02-19T00:00:00,2021-06-25T00:00:00
PROP-0000250,8474 Elm Way,Naperville,IL,60783,Naperville County,27.1801812,-100.8676405,2012,3500,STEEL,SLATE,1,RENTAL,X,2,729218.37,2021-01-09T00:00:00,2021-02-08T00:00:00
PROP-0000251,237 Oak Dr,Sacramento,CA,92484,Sacramento County,26.712713,-108.0894977,1990,2400,MASONRY,SLATE,1,RENTAL,X500,5,567196.97,2023-11-12T00:00:00,2023-12-29T00:00:00
PROP-0000252,6199 Magnolia Way,Hattiesburg,MS,39067,Hattiesburg County,28.0581169,-118.2298767,1976,4400,MANUFACTURED,TILE,2,RENTAL,VE,5,693750.63,2022-05-08T00:00:00,2022-08-13T00:00:00
PROP-0000253,259 Cedar Way,Columbia,SC,29727,Columbia County,41.9245501,-86.6268437,1969,4100,WOOD,WOOD_SHAKE,1,VACANT,B,3,878236.6,2022-08-26T00:00:00,2023-01-18T00:00:00
PROP-0000254,2776 Oak Dr,Jacksonville,FL,34642,Jacksonville County,33.1011702,-96.2860627,1962,3600,MANUFACTURED,METAL,1,RENTAL,B,3,108166.17,2023-11-15T00:00:00,2023-12-16T00:00:00
PROP-0000255,8921 Cedar Ln,Savannah,GA,31151,Savannah County,36.4442783,-102.5502753,2023,3600,FRAME,FLAT,2,VACANT,V,2,989624.53,2023-03-25T00:00:00,2023-06-19T00:00:00
PROP-0000256,2754 Magnolia Dr,Montgomery,AL,36050,Montgomery County,36.1012227,-92.7409267,1959,4600,MANUFACTURED,FLAT,1,VACANT,C,5,819728.68,2020-06-11T00:00:00,2020-10-04T00:00:00
PROP-0000257,2148 Hickory Dr,Mobile,AL,35899,Mobile County,37.7455755,-114.7348544,1973,3300,FRAME,SHINGLE,1,VACANT,A,1,1174725.86,2020-02-17T00:00:00,2020-06-30T00:00:00
PROP-0000258,2644 Maple Way,Houston,TX,76939,Houston County,29.2057408,-111.4962877,1983,4800,MASONRY,TILE,2,SECONDARY,A,1,1022239.77,2023-06-19T00:00:00,2023-09-10T00:00:00
PROP-0000259,9087 Cypress Blvd,Hattiesburg,MS,39779,Hattiesburg County,28.0096229,-97.7062953,2019,4800,MANUFACTURED,WOOD_SHAKE,2,VACANT,B,3,763945.39,2021-07-11T00:00:00,2021-09-07T00:00:00
PROP-0000260,6853 Elm Blvd,San Antonio,TX,76911,San Antonio County,25.0015699,-88.1232893,1989,1600,CONCRETE,METAL,2,PRIMARY,X500,4,505446.94,2022-01-19T00:00:00,2022-05-09T00:00:00
PROP-0000261,6221 Pine Way,Raleigh,NC,28765,Raleigh County,31.7107854,-116.8161422,1950,4900,STEEL,FLAT,1,PRIMARY,X,2,813586.29,2023-01-27T00:00:00,2023-07-02T00:00:00
PROP-0000262,6865 Pine Ave,Wilmington,NC,27527,Wilmington County,29.9231201,-95.9767208,2018,4700,STEEL,METAL,2,VACANT,VE,3,107541.46,2021-07-04T00:00:00,2021-07-16T00:00:00
PROP-0000263,4722 Elm Blvd,Los Angeles,CA,94566,Los Angeles County,37.3608202,-113.7563381,1973,1700,FRAME,FLAT,1,VACANT,B,4,1497108.09,2020-07-28T00:00:00,2020-11-23T00:00:00
PROP-0000264,2493 Oak Ln,Orlando,FL,34460,Orlando County,26.2135398,-103.3135418,1960,2000,CONCRETE,FLAT,2,PRIMARY,VE,4,1175139.97,2024-03-17T00:00:00,2024-07-08T00:00:00
PROP-0000265,1639 Willow Dr,Charleston,SC,29759,Charleston County,36.5845194,-110.2671879,1975,2800,MASONRY,WOOD_SHAKE,2,PRIMARY,B,4,986698.42,2022-08-01T00:00:00,2022-09-20T00:00:00
PROP-0000266,3966 Pecan Way,Atlanta,GA,31011,Atlanta County,27.8451261,-111.8515981,1977,1500,STEEL,TILE,1,PRIMARY,X500,5,300088.56,2020-08-19T00:00:00,2020-09-10T00:00:00
PROP-0000267,5644 Bay St,Columbia,SC,29055,Columbia County,35.9577732,-93.1415618,2013,1400,MASONRY,FLAT,1,RENTAL,X500,2,110321.02,2020-07-06T00:00:00,2020-10-10T00:00:00
PROP-0000268,8051 Hickory Pl,Savannah,GA,31747,Savannah County,34.2264793,-102.4359522,1982,4400,MASONRY,SLATE,1,VACANT,B,5,1378553.08,2020-03-21T00:00:00,2020-08-09T00:00:00
PROP-0000269,7462 Elm Ln,New Orleans,LA,70856,New Orleans County,32.7193427,-89.8596121,2017,4000,STEEL,WOOD_SHAKE,1,PRIMARY,C,5,419076.91,2020-11-13T00:00:00,2020-11-29T00:00:00
PROP-0000270,8251 Walnut Blvd,Sacramento,CA,93946,Sacramento County,30.4842007,-95.8002271,1974,1500,FRAME,SLATE,2,PRIMARY,V,2,1320359.74,2022-12-09T00:00:00,2023-01-29T00:00:00
PROP-0000271,621 Birch Way,San Antonio,TX,79272,San Antonio County,33.9389632,-93.1421831,1974,2400,FRAME,METAL,1,PRIMARY,A,2,1011164.09,2020-07-21T00:00:00,2020-08-10T00:00:00
PROP-0000272,6914 Laurel Ct,Jackson,MS,39717,Jackson County,39.0019304,-112.3041121,1996,1000,MANUFACTURED,SHINGLE,2,PRIMARY,VE,5,217909.34,2023-02-16T00:00:00,2023-04-16T00:00:00
PROP-0000273,8721 Pecan Dr,Sacramento,CA,93690,Sacramento County,41.1075569,-99.4293669,1974,4300,STEEL,WOOD_SHAKE,1,RENTAL,X500,4,1333610.11,2021-01-30T00:00:00,2021-03-13T00:00:00
PROP-0000274,5629 Pecan Blvd,Lake Charles,LA,70886,Lake Charles County,32.5312069,-108.4977407,2001,2800,WOOD,METAL,2,VACANT,X,3,943946.99,2022-10-30T00:00:00,2023-03-23T00:00:00
PROP-0000275,9115 Bay Ln,San Francisco,CA,92367,San Francisco County,32.6074964,-106.5280153,1998,1000,CONCRETE,SLATE,1,SECONDARY,B,1,506474.23,2024-04-17T00:00:00,2024-06-12T00:00:00
PROP-0000276,4621 Bay Blvd,Myrtle Beach,SC,29114,Myrtle Beach County,32.8262867,-117.1312873,1952,2400,CONCRETE,SLATE,1,RENTAL,B,1,890091.77,2024-04-29T00:00:00,2024-09-21T00:00:00
PROP-0000277,2932 Cypress Ave,Charleston,SC,29992,Charleston County,30.1066853,-91.8452681,1991,4400,STEEL,SHINGLE,2,RENTAL,C,4,671460.83,2022-09-15T00:00:00,2022-10-15T00:00:00
PROP-0000278,5093 Willow St,Charleston,SC,29579,Charleston County,34.6035192,-109.6194084,1998,2200,MASONRY,SHINGLE,2,VACANT,X500,5,896861.89,2020-04-20T00:00:00,2020-05-13T00:00:00
PROP-0000279,6560 Cedar Blvd,Greenville,SC,29520,Greenville County,33.0895291,-91.2061383,1987,4300,STEEL,METAL,1,VACANT,V,2,762909.95,2024-05-29T00:00:00,2024-07-18T00:00:00
PROP-0000280,9294 Birch Dr,Hattiesburg,MS,38919,Hattiesburg County,29.5263705,-105.0771078,2023,4400,FRAME,SHINGLE,2,VACANT,C,3,350495.43,2021-02-05T00:00:00,2021-05-04T00:00:00
PROP-0000281,5829 Birch Pl,Chicago,IL,61928,Chicago County,32.4878782,-83.3346189,1989,2200,MASONRY,WOOD_SHAKE,1,PRIMARY,AE,1,425128.6,2020-12-12T00:00:00,2021-05-19T00:00:00
PROP-0000282,1923 Elm Pl,Shreveport,LA,70712,Shreveport County,30.6419042,-91.4394287,1951,2100,MASONRY,SLATE,2,RENTAL,X500,5,1116491.49,2021-12-04T00:00:00,2022-01-09T00:00:00
PROP-0000283,8731 Oak Ln,Jacksonville,FL,32517,Jacksonville County,29.8282302,-89.2757062,2024,4700,CONCRETE,SHINGLE,2,PRIMARY,AE,4,1017729.41,2023-09-20T00:00:00,2024-03-07T00:00:00
PROP-0000284,6432 Pine Way,Atlanta,GA,31622,Atlanta County,40.365825,-102.6748653,1952,4600,WOOD,SHINGLE,1,VACANT,A,1,431296.84,2021-08-22T00:00:00,2022-01-04T00:00:00
PROP-0000285,2672 Oak Ct,Wilmington,NC,28155,Wilmington County,35.6289265,-113.6069903,2012,4000,CONCRETE,SHINGLE,2,VACANT,A,5,1427745.31,2022-03-16T00:00:00,2022-05-12T00:00:00
PROP-0000286,2348 Maple Way,Shreveport,LA,70896,Shreveport County,35.4116227,-96.4769176,2000,2200,STEEL,TILE,2,VACANT,B,5,547584.33,2023-09-07T00:00:00,2024-01-23T00:00:00
PROP-0000287,8969 Pecan Dr,Baton Rouge,LA,71327,Baton Rouge County,30.2529727,-92.9739989,1967,4100,MASONRY,FLAT,3,SECONDARY,V,3,176295.94,2023-04-04T00:00:00,2023-08-18T00:00:00
PROP-0000288,583 Walnut Ct,Dallas,TX,77662,Dallas County,30.1569178,-91.1931719,1990,4800,MANUFACTURED,METAL,1,SECONDARY,AE,2,342340.03,2020-10-25T00:00:00,2021-03-30T00:00:00
PROP-0000289,3883 Birch Dr,Naperville,IL,60797,Naperville County,25.4434364,-120.5030811,2022,3800,MASONRY,SLATE,2,VACANT,C,2,1290023.79,2023-06-08T00:00:00,2023-10-11T00:00:00
PROP-0000290,3807 Oak Way,Gulfport,MS,38644,Gulfport County,41.1533667,-114.2076147,1970,5000,MASONRY,TILE,1,VACANT,X500,3,1310820.37,2021-01-30T00:00:00,2021-04-03T00:00:00
PROP-0000291,6332 Hickory Ct,Montgomery,AL,36288,Montgomery County,40.9653653,-98.8348842,1955,4200,WOOD,WOOD_SHAKE,2,PRIMARY,AE,4,728798.6,2023-05-30T00:00:00,2023-06-09T00:00:00
PROP-0000292,6447 Willow St,Greenville,SC,29347,Greenville County,32.4724159,-85.0865067,1955,2600,STEEL,TILE,2,PRIMARY,V,4,1258448.78,2023-02-16T00:00:00,2023-06-11T00:00:00
PROP-0000293,3045 Walnut Blvd,Corpus Christi,TX,77562,Corpus Christi County,30.4988359,-122.903867,2014,3700,WOOD,WOOD_SHAKE,2,VACANT,AE,3,540186.19,2020-08-19T00:00:00,2021-02-01T00:00:00
PROP-0000294,7462 Pecan Ct,New Orleans,LA,70177,New Orleans County,37.023745,-92.0175512,1961,4000,WOOD,TILE,1,VACANT,A,2,1375398.95,2020-08-21T00:00:00,2021-01-12T00:00:00
PROP-0000295,940 Palm Ln,Baton Rouge,LA,70467,Baton Rouge County,29.9092691,-116.0493748,1968,1600,MASONRY,SHINGLE,2,RENTAL,A,4,786631.2,2021-01-01T00:00:00,2021-05-08T00:00:00
PROP-0000296,3653 Birch Pl,Los Angeles,CA,92962,Los Angeles County,32.5118811,-97.5464711,2013,800,MASONRY,SLATE,1,SECONDARY,A,2,290523.76,2021-05-02T00:00:00,2021-10-16T00:00:00
PROP-0000297,9571 Laurel Ln,Atlanta,GA,31021,Atlanta County,25.8335332,-105.6538954,1968,1900,MASONRY,WOOD_SHAKE,1,SECONDARY,X500,5,591467.88,2020-03-07T00:00:00,2020-03-16T00:00:00
PROP-0000298,6308 Laurel Ave,Austin,TX,79864,Austin County,39.3362637,-121.1432619,1991,3800,MASONRY,SHINGLE,2,RENTAL,C,5,667536.23,2022-01-24T00:00:00,2022-03-18T00:00:00
PROP-0000299,8766 Maple Pl,Charleston,SC,29946,Charleston County,32.2599113,-86.6968893,1963,2400,WOOD,SLATE,3,RENTAL,V,5,878940.76,2023-03-16T00:00:00,2023-07-27T00:00:00
PROP-0000300,3912 Hickory Ln,Hattiesburg,MS,38910,Hattiesburg County,27.0095213,-103.5450321,1973,1500,MANUFACTURED,TILE,2,VACANT,X,1,553985.0,2023-06-02T00:00:00,2023-10-23T00:00:00
PROP-0000301,4714 Elm Ave,Charleston,SC,29448,Charleston County,33.6137237,-109.7473511,1975,800,FRAME,WOOD_SHAKE,1,VACANT,A,2,355502.12,2023-11-14T00:00:00,2024-02-08T00:00:00
PROP-0000302,2324 Cypress Blvd,Hattiesburg,MS,39668,Hattiesburg County,40.1649916,-100.373428,1954,2900,STEEL,FLAT,3,PRIMARY,B,5,1109449.1,2023-08-15T00:00:00,2023-11-03T00:00:00
PROP-0000303,5534 Walnut Ct,Los Angeles,CA,90429,Los Angeles County,29.7678205,-122.6283808,1976,3200,MANUFACTURED,SLATE,2,VACANT,V,5,245919.39,2023-03-28T00:00:00,2023-06-14T00:00:00
PROP-0000304,1522 Cypress Dr,Atlanta,GA,31167,Atlanta County,39.100777,-110.684337,1984,4100,CONCRETE,TILE,1,PRIMARY,VE,1,710159.21,2022-04-27T00:00:00,2022-05-03T00:00:00
PROP-0000305,8021 Hickory Ln,Gulfport,MS,39128,Gulfport County,38.0811838,-119.6769311,1974,4100,MANUFACTURED,TILE,1,PRIMARY,X500,4,1093421.89,2021-11-27T00:00:00,2022-04-09T00:00:00
PROP-0000306,9836 Laurel Ave,Houston,TX,77169,Houston County,40.1161599,-119.4634755,1989,5000,MANUFACTURED,METAL,1,RENTAL,VE,3,364788.83,2020-03-31T00:00:00,2020-06-12T00:00:00
PROP-0000307,2027 Elm Blvd,Wilmington,NC,27545,Wilmington County,26.9458267,-81.8348856,2006,4300,WOOD,SHINGLE,1,RENTAL,C,3,281010.7,2023-10-06T00:00:00,2024-04-03T00:00:00
PROP-0000308,5201 Birch Ct,Raleigh,NC,28766,Raleigh County,25.8623451,-122.7243218,1971,1100,FRAME,FLAT,1,VACANT,X,2,1080642.18,2020-05-25T00:00:00,2020-10-23T00:00:00
PROP-0000309,3346 Hickory Ave,Biloxi,MS,39382,Biloxi County,27.2405198,-88.2345552,1989,3700,FRAME,FLAT,1,VACANT,X500,2,1425376.54,2021-11-11T00:00:00,2021-12-17T00:00:00
PROP-0000310,3104 Hickory Ct,Naperville,IL,62551,Naperville County,32.7058122,-122.6683782,1996,3800,FRAME,METAL,2,SECONDARY,B,3,938305.13,2022-03-13T00:00:00,2022-04-14T00:00:00
PROP-0000311,1852 Magnolia Ave,Los Angeles,CA,95048,Los Angeles County,34.0566746,-106.3640751,2001,3400,MASONRY,SLATE,1,SECONDARY,X500,4,173805.11,2024-01-02T00:00:00,2024-02-24T00:00:00
PROP-0000312,5706 Willow Dr,Rockford,IL,60594,Rockford County,36.3832883,-91.46785,2005,4400,STEEL,SHINGLE,2,VACANT,C,5,218668.55,2023-03-07T00:00:00,2023-06-28T00:00:00
PROP-0000313,9901 Maple Way,Shreveport,LA,70573,Shreveport County,35.964815,-121.2947823,2001,2100,MASONRY,SLATE,3,PRIMARY,V,2,723223.68,2020-05-22T00:00:00,2020-08-04T00:00:00
PROP-0000314,5287 Elm Ln,Montgomery,AL,36354,Montgomery County,41.8349174,-98.360013,1975,4700,WOOD,FLAT,2,RENTAL,A,3,1359527.49,2021-02-25T00:00:00,2021-03-10T00:00:00
PROP-0000315,1897 Laurel Ln,Naples,FL,34713,Naples County,28.9990999,-93.1022372,2021,3300,MANUFACTURED,METAL,2,VACANT,X,4,854068.68,2022-01-05T00:00:00,2022-06-23T00:00:00
PROP-0000316,9200 Palm Ct,Lafayette,LA,71363,Lafayette County,27.6225439,-80.1119341,1967,5000,MASONRY,TILE,1,PRIMARY,V,4,1014255.91,2021-01-20T00:00:00,2021-02-23T00:00:00
PROP-0000317,7074 Birch Blvd,Dallas,TX,77975,Dallas County,32.2101196,-87.9168573,2003,3200,CONCRETE,TILE,1,PRIMARY,X500,2,1091224.6,2022-07-22T00:00:00,2022-09-28T00:00:00
PROP-0000318,9408 Cypress Ct,Huntsville,AL,35384,Huntsville County,33.1860594,-93.6181203,1954,1700,MANUFACTURED,WOOD_SHAKE,2,RENTAL,X500,5,191093.13,2020-03-18T00:00:00,2020-08-21T00:00:00
PROP-0000319,1379 Pecan Ln,Dallas,TX,78916,Dallas County,40.3609496,-100.4585365,2010,800,STEEL,FLAT,2,VACANT,C,4,581138.65,2023-07-15T00:00:00,2023-09-28T00:00:00
PROP-0000320,9891 Hickory Ln,Raleigh,NC,28843,Raleigh County,26.044102,-103.1809366,1954,1800,WOOD,SHINGLE,2,RENTAL,A,3,768359.47,2023-11-24T00:00:00,2023-12-26T00:00:00
PROP-0000321,2271 Birch Ln,Los Angeles,CA,91742,Los Angeles County,25.2414512,-119.0918262,1985,1900,WOOD,WOOD_SHAKE,1,VACANT,C,2,450978.67,2021-05-31T00:00:00,2021-11-26T00:00:00
PROP-0000322,642 Magnolia Ave,Greenville,SC,29286,Greenville County,40.8770115,-117.2173869,1973,3900,STEEL,FLAT,1,VACANT,V,2,900415.5,2022-12-16T00:00:00,2023-03-14T00:00:00
PROP-0000323,2000 Oak Blvd,Naples,FL,33461,Naples County,33.095943,-103.0442854,1983,4200,MASONRY,FLAT,2,VACANT,X500,3,286112.76,2024-03-27T00:00:00,2024-07-16T00:00:00
PROP-0000324,5272 Willow St,Orlando,FL,32378,Orlando County,35.8362106,-81.9279191,2007,3500,WOOD,WOOD_SHAKE,2,RENTAL,B,3,1219289.23,2022-02-21T00:00:00,2022-04-27T00:00:00
PROP-0000325,4061 Hickory Dr,Rockford,IL,61653,Rockford County,36.5212087,-80.2985467,2009,2800,WOOD,SHINGLE,2,PRIMARY,A,4,218732.24,2024-05-02T00:00:00,2024-05-28T00:00:00
PROP-0000326,4741 Elm Dr,Biloxi,MS,38613,Biloxi County,35.5297528,-121.4971959,1978,4600,MANUFACTURED,TILE,3,PRIMARY,AE,1,1296145.97,2024-01-25T00:00:00,2024-02-27T00:00:00
PROP-0000327,3118 Elm Ln,Mobile,AL,36494,Mobile County,40.915095,-95.8936577,1964,2500,STEEL,WOOD_SHAKE,3,RENTAL,B,2,1188638.44,2023-11-25T00:00:00,2024-02-03T00:00:00
PROP-0000328,1084 Elm Ln,Jacksonville,FL,32566,Jacksonville County,26.1797742,-80.9054329,1999,2000,WOOD,FLAT,1,VACANT,AE,2,847697.66,2021-11-12T00:00:00,2022-03-02T00:00:00
PROP-0000329,4343 Maple St,Charleston,SC,29119,Charleston County,34.7128575,-112.9737606,2006,3600,FRAME,FLAT,1,PRIMARY,A,4,458339.8,2024-01-05T00:00:00,2024-07-02T00:00:00
PROP-0000330,8544 Hickory Pl,Macon,GA,31565,Macon County,31.8665168,-91.9782335,2023,1200,WOOD,TILE,1,VACANT,AE,5,840131.79,2020-01-08T00:00:00,2020-04-08T00:00:00
PROP-0000331,1585 Magnolia Ct,Augusta,GA,30268,Augusta County,37.9277024,-111.2418186,2001,2000,MASONRY,SLATE,1,VACANT,VE,3,1068152.84,2020-04-23T00:00:00,2020-05-20T00:00:00
PROP-0000332,7275 Hickory Dr,Macon,GA,30414,Macon County,28.2825762,-92.3314825,1960,4500,MASONRY,FLAT,1,RENTAL,X500,5,1450234.46,2023-07-19T00:00:00,2023-11-11T00:00:00
PROP-0000333,5633 Walnut St,Miami,FL,33225,Miami County,28.598529,-95.2306029,1993,4100,STEEL,WOOD_SHAKE,2,SECONDARY,VE,1,132366.29,2020-04-24T00:00:00,2020-05-30T00:00:00
PROP-0000334,850 Pine Blvd,Jackson,MS,38632,Jackson County,35.7552447,-84.1948566,2010,1400,STEEL,SLATE,1,PRIMARY,AE,1,785943.77,2023-06-20T00:00:00,2023-11-24T00:00:00
PROP-0000335,5627 Walnut Way,Charleston,SC,29525,Charleston County,41.5895056,-98.6574515,1975,1600,CONCRETE,TILE,2,SECONDARY,C,1,251458.6,2022-05-22T00:00:00,2022-06-27T00:00:00
PROP-0000336,2803 Cypress Dr,Mobile,AL,36815,Mobile County,27.2673049,-89.193699,1997,4800,WOOD,FLAT,2,PRIMARY,X500,1,89016.4,2023-02-07T00:00:00,2023-03-24T00:00:00
PROP-0000337,7898 Hickory Blvd,Corpus Christi,TX,76328,Corpus Christi County,35.877037,-100.984178,1986,3400,MASONRY,TILE,2,PRIMARY,V,4,949110.74,2022-05-02T00:00:00,2022-05-24T00:00:00
PROP-0000338,9237 Pine Dr,Wilmington,NC,27377,Wilmington County,41.6054551,-96.7674786,2003,4200,WOOD,TILE,2,SECONDARY,B,1,355080.97,2020-01-10T00:00:00,2020-02-17T00:00:00
PROP-0000339,806 Oak Ct,Hattiesburg,MS,39036,Hattiesburg County,32.3894179,-109.2910363,1972,3700,FRAME,SHINGLE,2,SECONDARY,V,1,768787.18,2020-11-23T00:00:00,2020-12-22T00:00:00
PROP-0000340,9598 Magnolia Way,Dallas,TX,76296,Dallas County,40.2723369,-113.8772176,2006,1500,CONCRETE,TILE,1,VACANT,VE,4,1345738.51,2023-04-28T00:00:00,2023-05-16T00:00:00
PROP-0000341,2474 Pine Pl,Hattiesburg,MS,38859,Hattiesburg County,31.3492464,-103.8594315,1956,2000,MANUFACTURED,METAL,3,SECONDARY,C,2,125574.33,2022-06-11T00:00:00,2022-11-03T00:00:00
PROP-0000342,7727 Cypress Way,Orlando,FL,32553,Orlando County,28.7375106,-111.0128934,1967,1800,MANUFACTURED,SLATE,3,SECONDARY,AE,4,1296902.74,2020-08-15T00:00:00,2020-12-18T00:00:00
PROP-0000343,337 Hickory Way,Greenville,SC,29341,Greenville County,30.5640311,-98.5034507,2009,4500,MASONRY,SLATE,2,VACANT,A,1,1487608.38,2021-07-25T00:00:00,2021-12-01T00:00:00
PROP-0000344,7952 Walnut Ave,Jacksonville,FL,33473,Jacksonville County,29.0886954,-99.4265735,2017,800,MANUFACTURED,WOOD_SHAKE,2,SECONDARY,V,3,500022.41,2022-03-18T00:00:00,2022-08-30T00:00:00
PROP-0000345,5094 Cedar Pl,Houston,TX,78684,Houston County,25.4150291,-103.9870049,2011,1600,MANUFACTURED,FLAT,1,RENTAL,X500,1,1301743.36,2023-10-02T00:00:00,2023-10-20T00:00:00
PROP-0000346,4959 Palm Ln,Huntsville,AL,36979,Huntsville County,34.7788992,-114.8855572,2017,1300,WOOD,METAL,2,PRIMARY,C,1,237572.49,2020-03-07T00:00:00,2020-06-08T00:00:00
PROP-0000347,2971 Pecan Ave,Jackson,MS,39436,Jackson County,27.3528987,-109.2630942,1996,4200,FRAME,WOOD_SHAKE,2,SECONDARY,VE,3,580850.57,2022-01-20T00:00:00,2022-03-29T00:00:00
PROP-0000348,1138 Magnolia Ct,Sacramento,CA,92872,Sacramento County,33.5246516,-87.4993676,1985,3800,MANUFACTURED,SLATE,2,RENTAL,X500,5,602767.11,2020-04-21T00:00:00,2020-10-10T00:00:00
PROP-0000349,1413 Palm Blvd,Dallas,TX,76819,Dallas County,26.8592037,-111.8585196,2008,1700,STEEL,TILE,2,PRIMARY,B,4,1456795.94,2020-06-27T00:00:00,2020-11-12T00:00:00
PROP-0000350,7372 Hickory St,Lafayette,LA,70434,Lafayette County,26.0701416,-85.6410772,1994,2200,WOOD,WOOD_SHAKE,1,RENTAL,C,4,922567.3,2022-05-10T00:00:00,2022-11-04T00:00:00
PROP-0000351,9393 Cedar Ln,Sacramento,CA,91043,Sacramento County,28.8552929,-107.6362981,2008,2600,FRAME,TILE,1,VACANT,V,5,1392266.93,2021-09-14T00:00:00,2022-01-29T00:00:00
PROP-0000352,2614 Cedar Dr,Raleigh,NC,27315,Raleigh County,41.8941416,-98.7208925,1972,3600,CONCRETE,METAL,1,PRIMARY,C,3,290080.78,2023-12-21T00:00:00,2024-04-13T00:00:00
PROP-0000353,2090 Bay St,San Francisco,CA,92573,San Francisco County,38.0648088,-82.2972816,2018,2800,MASONRY,SHINGLE,3,RENTAL,B,4,1352287.99,2021-09-09T00:00:00,2022-02-02T00:00:00
PROP-0000354,1940 Hickory Pl,Lake Charles,LA,71415,Lake Charles County,27.370196,-99.7577604,2006,2700,FRAME,FLAT,2,SECONDARY,X500,3,211323.21,2021-11-24T00:00:00,2021-12-08T00:00:00
PROP-0000355,3739 Walnut Ln,Springfield,IL,60612,Springfield County,26.4210224,-86.6241389,2024,5000,FRAME,SLATE,1,VACANT,C,5,939210.51,2022-12-14T00:00:00,2022-12-28T00:00:00
PROP-0000356,7106 Magnolia Way,Macon,GA,31111,Macon County,29.8390562,-108.5403785,1968,3600,WOOD,SHINGLE,1,VACANT,X,4,489860.31,2024-01-06T00:00:00,2024-04-23T00:00:00
PROP-0000357,3504 Elm Pl,Mobile,AL,36652,Mobile County,26.1239683,-81.7558069,1961,3200,FRAME,SHINGLE,2,RENTAL,X,2,869255.66,2020-10-21T00:00:00,2021-03-15T00:00:00
PROP-0000358,4842 Willow Pl,Baton Rouge,LA,70048,Baton Rouge County,39.1879484,-110.6277673,1973,4300,MANUFACTURED,FLAT,1,PRIMARY,V,3,506240.56,2022-02-20T00:00:00,2022-08-02T00:00:00
PROP-0000359,3038 Cypress Dr,Jackson,MS,38625,Jackson County,38.000212,-102.3057901,1986,1200,WOOD,WOOD_SHAKE,1,VACANT,X,3,971754.39,2022-05-04T00:00:00,2022-09-02T00:00:00
PROP-0000360,9525 Oak Ln,Austin,TX,76084,Austin County,25.9946767,-109.9340311,2015,1600,CONCRETE,TILE,1,RENTAL,X,3,149175.16,2024-02-10T00:00:00,2024-04-24T00:00:00
PROP-0000361,3102 Walnut Ave,Los Angeles,CA,93831,Los Angeles County,34.2431097,-85.6125021,2015,2700,CONCRETE,WOOD_SHAKE,2,RENTAL,AE,5,903666.23,2021-01-31T00:00:00,2021-03-08T00:00:00
PROP-0000362,6211 Walnut Pl,Tampa,FL,33353,Tampa County,40.6554254,-116.8267177,2016,2100,MASONRY,SLATE,1,SECONDARY,AE,4,733897.73,2021-07-30T00:00:00,2021-08-18T00:00:00
PROP-0000363,5805 Elm Ct,Dallas,TX,75866,Dallas County,40.1253486,-97.7034599,1952,2900,MASONRY,WOOD_SHAKE,1,PRIMARY,VE,2,1296677.6,2022-09-09T00:00:00,2022-10-15T00:00:00
PROP-0000364,2233 Maple Way,Myrtle Beach,SC,29119,Myrtle Beach County,25.319709,-102.6927846,1966,3500,FRAME,TILE,1,PRIMARY,X500,1,1370111.6,2021-03-05T00:00:00,2021-03-16T00:00:00
PROP-0000365,1681 Walnut Ave,Austin,TX,78836,Austin County,34.9892518,-115.1989252,1951,5000,CONCRETE,SHINGLE,1,RENTAL,C,3,307991.42,2024-03-25T00:00:00,2024-07-31T00:00:00
PROP-0000366,1219 Maple St,Springfield,IL,61637,Springfield County,37.1687978,-81.5723928,2014,1800,WOOD,SHINGLE,3,PRIMARY,VE,5,1288841.47,2023-03-13T00:00:00,2023-07-12T00:00:00
PROP-0000367,1858 Cedar Ct,Savannah,GA,31264,Savannah County,28.642658,-113.9876146,2006,1500,CONCRETE,SHINGLE,2,SECONDARY,X500,3,1080717.9,2023-10-11T00:00:00,2024-03-01T00:00:00
PROP-0000368,1995 Palm Ln,Miami,FL,33486,Miami County,37.5149652,-93.7699515,1991,3600,MASONRY,SLATE,2,VACANT,VE,1,1350551.6,2022-10-08T00:00:00,2023-02-06T00:00:00
PROP-0000369,8155 Pecan Ave,Savannah,GA,31266,Savannah County,33.8852604,-94.2331788,1951,1500,MASONRY,FLAT,2,PRIMARY,V,1,596468.19,2023-10-12T00:00:00,2023-12-01T00:00:00
PROP-0000370,3915 Laurel Way,Savannah,GA,31545,Savannah County,38.0018892,-90.2972248,2001,4500,CONCRETE,WOOD_SHAKE,3,RENTAL,X500,5,1429197.12,2020-09-08T00:00:00,2021-01-10T00:00:00
PROP-0000371,7548 Maple Ave,San Diego,CA,91672,San Diego County,33.4536543,-96.3516747,1968,1600,FRAME,SHINGLE,2,PRIMARY,X500,1,1460343.02,2024-04-21T00:00:00,2024-07-27T00:00:00
PROP-0000372,1678 Walnut Ave,Naperville,IL,62176,Naperville County,38.0487258,-89.1198177,1969,2000,CONCRETE,WOOD_SHAKE,2,RENTAL,C,5,856200.45,2021-09-12T00:00:00,2021-09-20T00:00:00
PROP-0000373,5253 Laurel Way,Birmingham,AL,36468,Birmingham County,25.611679,-116.2177564,1999,5000,CONCRETE,WOOD_SHAKE,1,VACANT,V,3,1096326.93,2022-07-10T00:00:00,2022-11-11T00:00:00
PROP-0000374,9173 Pecan Pl,Fort Worth,TX,78081,Fort Worth County,39.523975,-101.7058579,2012,3300,CONCRETE,FLAT,2,VACANT,C,3,535085.55,2023-09-13T00:00:00,2023-09-20T00:00:00
PROP-0000375,5815 Walnut St,Chicago,IL,62490,Chicago County,30.8013609,-119.7165978,1966,3000,CONCRETE,FLAT,1,SECONDARY,VE,2,1000277.61,2022-01-20T00:00:00,2022-06-20T00:00:00
PROP-0000376,1975 Magnolia Blvd,Corpus Christi,TX,75178,Corpus Christi County,30.5439862,-103.719987,1958,3500,WOOD,SLATE,3,RENTAL,A,4,914944.71,2021-09-16T00:00:00,2021-12-06T00:00:00
PROP-0000377,1701 Walnut Pl,Montgomery,AL,35398,Montgomery County,36.476892,-109.2174317,1991,4000,MANUFACTURED,METAL,1,RENTAL,C,4,366497.25,2023-03-18T00:00:00,2023-08-27T00:00:00
PROP-0000378,4444 Oak Ln,Fort Worth,TX,78661,Fort Worth County,38.6782513,-96.5188192,1977,1300,MANUFACTURED,SLATE,1,RENTAL,B,1,884328.18,2021-08-11T00:00:00,2021-12-24T00:00:00
PROP-0000379,1356 Pecan Ln,Hattiesburg,MS,39448,Hattiesburg County,32.3594782,-100.2423065,1976,2000,STEEL,FLAT,1,VACANT,V,1,971538.39,2021-12-12T00:00:00,2022-04-23T00:00:00
PROP-0000380,7756 Elm Way,Lake Charles,LA,71482,Lake Charles County,37.3524562,-121.3652069,2013,2000,CONCRETE,FLAT,1,SECONDARY,B,4,662569.57,2021-03-12T00:00:00,2021-03-28T00:00:00
PROP-0000381,2731 Elm Dr,Greenville,SC,29640,Greenville County,26.9304958,-115.5556955,1984,2300,CONCRETE,FLAT,2,VACANT,X,1,366826.52,2021-08-10T00:00:00,2021-10-18T00:00:00
PROP-0000382,9122 Cedar St,New Orleans,LA,71172,New Orleans County,38.2979737,-121.5656,1983,1300,CONCRETE,SLATE,1,PRIMARY,X,3,1033774.34,2021-07-22T00:00:00,2021-08-14T00:00:00
PROP-0000383,9454 Hickory Ave,Mobile,AL,36695,Mobile County,39.0926869,-82.214322,1980,4100,CONCRETE,FLAT,2,SECONDARY,AE,3,547585.99,2020-08-17T00:00:00,2021-01-13T00:00:00
PROP-0000384,2463 Maple Blvd,Mobile,AL,35645,Mobile County,32.471082,-112.8105395,2004,4500,FRAME,FLAT,2,PRIMARY,C,5,681769.47,2021-03-22T00:00:00,2021-09-12T00:00:00
PROP-0000385,7886 Hickory Ct,Myrtle Beach,SC,29412,Myrtle Beach County,35.971759,-84.169905,1968,1000,MANUFACTURED,WOOD_SHAKE,2,PRIMARY,VE,3,864873.62,2022-01-13T00:00:00,2022-04-02T00:00:00
PROP-0000386,7348 Palm St,Atlanta,GA,31242,Atlanta County,30.1150986,-82.8018142,2018,2300,CONCRETE,TILE,2,SECONDARY,X500,3,1328843.49,2021-04-29T00:00:00,2021-10-10T00:00:00
PROP-0000387,8155 Cypress Way,Birmingham,AL,36064,Birmingham County,39.9049409,-87.9093823,1985,1800,MANUFACTURED,METAL,2,RENTAL,X,5,1115508.86,2020-06-13T00:00:00,2020-10-31T00:00:00
PROP-0000388,953 Pecan Blvd,Macon,GA,31492,Macon County,27.3135678,-106.3708786,1953,4800,CONCRETE,METAL,2,PRIMARY,V,2,813239.57,2024-04-09T00:00:00,2024-09-22T00:00:00
PROP-0000389,7497 Cypress Blvd,Lake Charles,LA,70432,Lake Charles County,36.6869368,-87.6221812,2002,2600,MASONRY,SHINGLE,2,SECONDARY,X,4,1421555.16,2021-10-16T00:00:00,2022-03-11T00:00:00
PROP-0000390,3847 Bay Ave,Charleston,SC,29735,Charleston County,29.4503138,-86.5194417,1952,1100,STEEL,SLATE,2,RENTAL,V,1,1440406.67,2023-02-17T00:00:00,2023-04-01T00:00:00
PROP-0000391,8715 Palm Pl,Chicago,IL,62696,Chicago County,33.4005335,-114.1227062,1951,2100,MASONRY,METAL,1,VACANT,X,2,692458.2,2024-01-11T00:00:00,2024-03-03T00:00:00
PROP-0000392,3202 Palm Blvd,Springfield,IL,61328,Springfield County,25.489143,-81.0503608,1986,2300,WOOD,FLAT,3,RENTAL,X500,1,94654.74,2024-01-28T00:00:00,2024-03-02T00:00:00
PROP-0000393,6383 Hickory Way,Macon,GA,31942,Macon County,26.2419455,-99.4920011,1977,1100,CONCRETE,TILE,2,RENTAL,A,1,440192.77,2023-12-31T00:00:00,2024-06-06T00:00:00
PROP-0000394,6176 Cedar St,Huntsville,AL,36832,Huntsville County,29.4249581,-101.8351442,2000,2900,STEEL,TILE,1,VACANT,V,3,245915.72,2023-10-06T00:00:00,2023-10-17T00:00:00
PROP-0000395,6007 Bay Way,Lafayette,LA,70443,Lafayette County,35.4198367,-90.4911876,1985,2400,WOOD,METAL,2,SECONDARY,C,4,1164419.09,2024-03-11T00:00:00,2024-04-18T00:00:00
PROP-0000396,2535 Oak Dr,Sacramento,CA,91114,Sacramento County,32.994208,-116.8035819,1956,3700,STEEL,SHINGLE,3,VACANT,A,4,586258.57,2021-01-21T00:00:00,2021-06-13T00:00:00
PROP-0000397,2525 Maple Ct,Hattiesburg,MS,38736,Hattiesburg County,39.7589429,-116.0511816,2013,1800,MANUFACTURED,SLATE,2,SECONDARY,A,5,1168923.63,2020-08-18T00:00:00,2020-10-03T00:00:00
PROP-0000398,8261 Pecan Ave,Birmingham,AL,36013,Birmingham County,29.8327813,-80.8212831,1981,1500,STEEL,METAL,2,PRIMARY,C,2,121001.79,2024-04-22T00:00:00,2024-08-17T00:00:00
PROP-0000399,195 Magnolia St,Hattiesburg,MS,39689,Hattiesburg County,41.1652315,-109.7037194,1984,4400,MASONRY,TILE,2,RENTAL,C,1,1136195.99,2023-05-01T00:00:00,2023-09-18T00:00:00
PROP-0000400,4280 Cedar Dr,Rockford,IL,62461,Rockford County,26.5162012,-86.4967833,1961,1800,STEEL,FLAT,1,SECONDARY,AE,3,777000.04,2022-03-27T00:00:00,2022-07-15T00:00:00
PROP-0000401,1674 Laurel Ct,Raleigh,NC,28635,Raleigh County,33.3235916,-85.0418263,1995,3800,CONCRETE,SLATE,2,PRIMARY,X,3,951692.25,2023-09-24T00:00:00,2024-01-13T00:00:00
PROP-0000402,5699 Cypress Dr,Birmingham,AL,35473,Birmingham County,33.9637381,-95.5220828,1955,1300,CONCRETE,FLAT,2,VACANT,B,2,1477544.45,2022-11-17T00:00:00,2023-05-11T00:00:00
PROP-0000403,4941 Birch St,Raleigh,NC,28719,Raleigh County,40.5941342,-101.4097612,2016,4000,STEEL,FLAT,1,RENTAL,C,3,911506.4,2022-05-25T00:00:00,2022-09-30T00:00:00
PROP-0000404,3085 Laurel Way,Miami,FL,32120,Miami County,32.0762765,-93.0073436,2009,2800,WOOD,WOOD_SHAKE,2,VACANT,B,3,1452741.87,2021-01-02T00:00:00,2021-02-18T00:00:00
PROP-0000405,9996 Elm Ave,Columbia,SC,29678,Columbia County,25.3045587,-106.6229109,1960,800,MASONRY,WOOD_SHAKE,2,VACANT,X500,3,958269.11,2024-03-09T00:00:00,2024-08-13T00:00:00
PROP-0000406,2149 Cedar St,Macon,GA,30624,Macon County,38.8714598,-93.3745726,1988,2000,FRAME,TILE,2,SECONDARY,VE,4,1275767.39,2020-06-28T00:00:00,2020-11-12T00:00:00
PROP-0000407,7692 Cedar Pl,Charleston,SC,29612,Charleston County,26.9797999,-84.2937252,1988,3600,STEEL,FLAT,1,VACANT,VE,2,498660.6,2024-04-25T00:00:00,2024-08-03T00:00:00
PROP-0000408,7174 Palm Pl,Orlando,FL,34384,Orlando County,35.1292724,-99.6106009,1951,2600,FRAME,FLAT,1,VACANT,VE,1,830198.51,2020-07-29T00:00:00,2020-11-14T00:00:00
PROP-0000409,4488 Bay Way,Naperville,IL,62870,Naperville County,26.9879926,-96.6013456,2020,4900,CONCRETE,FLAT,2,PRIMARY,V,3,1111216.97,2020-05-10T00:00:00,2020-09-07T00:00:00
PROP-0000410,3699 Birch Ct,Macon,GA,31994,Macon County,32.9639438,-85.1403707,1979,3200,STEEL,WOOD_SHAKE,2,RENTAL,X500,2,963016.18,2022-11-05T00:00:00,2023-01-16T00:00:00
PROP-0000411,2939 Pine Blvd,Corpus Christi,TX,78872,Corpus Christi County,26.7153633,-105.6966881,2011,3900,CONCRETE,TILE,1,PRIMARY,A,3,1330886.67,2020-09-21T00:00:00,2020-12-21T00:00:00
PROP-0000412,1143 Magnolia Way,Baton Rouge,LA,70189,Baton Rouge County,28.8537344,-99.2728163,2014,3900,CONCRETE,METAL,2,PRIMARY,B,2,1291839.57,2020-03-06T00:00:00,2020-07-15T00:00:00
PROP-0000413,7589 Laurel Ave,Chicago,IL,60388,Chicago County,35.3641494,-86.2309539,1956,1400,WOOD,SHINGLE,2,SECONDARY,AE,2,1373599.79,2022-06-15T00:00:00,2022-07-25T00:00:00
PROP-0000414,1726 Cedar Ct,Asheville,NC,28027,Asheville County,27.090719,-115.1168255,2014,3400,FRAME,TILE,2,VACANT,C,3,797132.27,2022-10-17T00:00:00,2022-11-07T00:00:00
PROP-0000415,4121 Cedar Way,Wilmington,NC,27727,Wilmington County,38.6300675,-105.8099856,2003,3400,STEEL,SLATE,2,RENTAL,A,4,286729.71,2022-01-08T00:00:00,2022-01-10T00:00:00
PROP-0000416,5257 Palm Blvd,Los Angeles,CA,92717,Los Angeles County,31.6855265,-122.3678757,1960,4900,MASONRY,SLATE,1,RENTAL,X,4,1337811.65,2021-11-23T00:00:00,2022-05-21T00:00:00
PROP-0000417,229 Laurel Ln,San Diego,CA,95777,San Diego County,35.3768181,-117.5380803,1990,3300,STEEL,WOOD_SHAKE,1,VACANT,C,4,1181068.48,2021-12-05T00:00:00,2022-02-20T00:00:00
PROP-0000418,6489 Hickory Blvd,Houston,TX,78379,Houston County,29.8267736,-119.915939,2018,4300,CONCRETE,SLATE,1,SECONDARY,A,1,1344253.46,2021-11-16T00:00:00,2022-04-03T00:00:00
PROP-0000419,5079 Hickory Way,Naperville,IL,61624,Naperville County,37.4437648,-86.9703286,1980,2400,MANUFACTURED,SLATE,1,PRIMARY,AE,4,503104.78,2024-05-04T00:00:00,2024-05-05T00:00:00
PROP-0000420,9628 Birch Dr,Biloxi,MS,39148,Biloxi County,29.8371034,-89.4692724,1980,4400,MANUFACTURED,TILE,2,SECONDARY,AE,3,813361.59,2024-03-07T00:00:00,2024-04-25T00:00:00
PROP-0000421,7074 Laurel Way,Macon,GA,30221,Macon County,26.0572924,-84.9055909,1962,3800,MASONRY,FLAT,1,VACANT,X,3,909711.36,2020-10-27T00:00:00,2021-04-07T00:00:00
PROP-0000422,6930 Laurel Blvd,Montgomery,AL,35474,Montgomery County,27.1611076,-92.709375,2012,1600,MANUFACTURED,SLATE,2,PRIMARY,VE,4,752164.9,2024-02-07T00:00:00,2024-03-18T00:00:00
PROP-0000423,6794 Maple Ave,San Diego,CA,92383,San Diego County,29.9230398,-100.99779,1965,1500,CONCRETE,METAL,3,RENTAL,B,4,119728.46,2023-05-17T00:00:00,2023-06-22T00:00:00
PROP-0000424,5099 Bay Ln,Lake Charles,LA,70333,Lake Charles County,38.9251262,-102.4930791,2003,1500,WOOD,METAL,1,PRIMARY,X,4,893743.91,2020-04-09T00:00:00,2020-08-31T00:00:00
PROP-0000425,2275 Walnut Blvd,Biloxi,MS,39491,Biloxi County,32.8359148,-104.2031068,1998,3600,MASONRY,WOOD_SHAKE,1,VACANT,X,2,1358347.07,2022-08-31T00:00:00,2022-11-25T00:00:00
PROP-0000426,4644 Pecan Ave,Los Angeles,CA,95531,Los Angeles County,37.0225466,-98.8322291,2006,2700,WOOD,WOOD_SHAKE,1,PRIMARY,VE,5,849404.75,2024-02-16T00:00:00,2024-02-29T00:00:00
PROP-0000427,405 Maple Blvd,Springfield,IL,60045,Springfield County,38.3748698,-113.2073854,2010,4500,STEEL,SHINGLE,2,RENTAL,X,5,143876.77,2022-10-26T00:00:00,2022-10-31T00:00:00
PROP-0000428,494 Laurel Ct,Macon,GA,31242,Macon County,26.5474264,-80.889411,1973,4200,MASONRY,METAL,1,RENTAL,AE,2,515647.79,2022-04-29T00:00:00,2022-08-11T00:00:00
PROP-0000429,545 Hickory St,New Orleans,LA,70459,New Orleans County,26.6786517,-117.7317358,1991,2800,CONCRETE,FLAT,3,PRIMARY,A,2,420264.61,2021-01-06T00:00:00,2021-06-07T00:00:00
PROP-0000430,8364 Palm Ave,Springfield,IL,60817,Springfield County,30.4117196,-99.6626722,2013,1200,STEEL,SHINGLE,2,SECONDARY,A,3,866786.87,2022-11-07T00:00:00,2023-04-06T00:00:00
PROP-0000431,2157 Elm Way,Dallas,TX,77820,Dallas County,39.3867235,-101.9809756,2021,1700,CONCRETE,SLATE,3,SECONDARY,X,5,721473.64,2023-08-27T00:00:00,2023-08-27T00:00:00
PROP-0000432,1085 Bay Pl,Biloxi,MS,39086,Biloxi County,29.2651123,-94.0800969,1971,3000,MANUFACTURED,TILE,2,RENTAL,A,2,1129639.78,2020-01-02T00:00:00,2020-05-25T00:00:00
PROP-0000433,2114 Laurel Blvd,Austin,TX,79681,Austin County,41.9799613,-85.3557111,1961,2100,WOOD,SLATE,3,RENTAL,C,3,1471089.29,2022-03-20T00:00:00,2022-07-13T00:00:00
PROP-0000434,3550 Cypress Ct,Raleigh,NC,27098,Raleigh County,27.2733377,-83.4206576,1991,4600,STEEL,SHINGLE,3,SECONDARY,X,5,1351280.81,2021-11-30T00:00:00,2022-05-29T00:00:00
PROP-0000435,1370 Willow St,Hattiesburg,MS,39666,Hattiesburg County,36.4281805,-108.4682318,2018,3200,WOOD,METAL,1,PRIMARY,AE,4,606082.51,2020-06-15T00:00:00,2020-08-03T00:00:00
PROP-0000436,424 Walnut Ln,Jackson,MS,39655,Jackson County,28.2556985,-88.0836437,1978,4800,CONCRETE,WOOD_SHAKE,1,VACANT,C,1,478674.03,2024-03-01T00:00:00,2024-08-28T00:00:00
PROP-0000437,6589 Maple Ln,Springfield,IL,61874,Springfield County,33.3981925,-99.7214518,1950,5000,MANUFACTURED,SLATE,2,SECONDARY,AE,5,262109.88,2021-02-05T00:00:00,2021-02-21T00:00:00
PROP-0000438,8670 Hickory Ln,Shreveport,LA,70396,Shreveport County,25.3929976,-81.3283269,2022,4200,WOOD,METAL,2,VACANT,A,4,990172.13,2021-04-11T00:00:00,2021-09-24T00:00:00
PROP-0000439,4589 Maple Pl,Orlando,FL,33556,Orlando County,33.7933675,-122.0875543,2005,2200,FRAME,METAL,3,VACANT,C,1,636439.62,2022-04-13T00:00:00,2022-07-07T00:00:00
PROP-0000440,3796 Hickory Way,Fort Worth,TX,75441,Fort Worth County,28.3469059,-109.5141161,1953,1200,MANUFACTURED,WOOD_SHAKE,1,VACANT,X,1,921393.69,2024-02-19T00:00:00,2024-07-28T00:00:00
PROP-0000441,7859 Pine Ct,Augusta,GA,30152,Augusta County,33.8344758,-113.5832787,1981,1200,WOOD,SLATE,2,PRIMARY,X500,5,257253.45,2020-08-08T00:00:00,2020-08-23T00:00:00
PROP-0000442,1165 Walnut Blvd,Jacksonville,FL,32166,Jacksonville County,25.9314101,-97.1274999,1990,3500,FRAME,SHINGLE,2,PRIMARY,B,4,650389.95,2023-11-21T00:00:00,2024-04-27T00:00:00
PROP-0000443,6390 Cypress Way,Mobile,AL,36989,Mobile County,26.7217248,-95.3594572,1951,900,STEEL,SLATE,1,SECONDARY,AE,1,97449.79,2022-07-17T00:00:00,2022-08-03T00:00:00
PROP-0000444,8437 Elm Ct,Springfield,IL,61371,Springfield County,37.3185916,-104.4365302,2023,2300,MASONRY,SHINGLE,1,RENTAL,X,5,1442832.72,2020-09-15T00:00:00,2020-12-15T00:00:00
PROP-0000445,5157 Birch Ct,Raleigh,NC,27957,Raleigh County,41.494608,-101.2220541,1968,5000,MANUFACTURED,TILE,1,PRIMARY,X,3,357478.12,2022-08-19T00:00:00,2022-10-09T00:00:00
PROP-0000446,7894 Hickory Pl,Charleston,SC,29998,Charleston County,30.6294724,-98.549927,1993,2900,WOOD,METAL,2,SECONDARY,AE,4,1324069.78,2021-01-22T00:00:00,2021-02-01T00:00:00
PROP-0000447,3754 Hickory Dr,Gulfport,MS,39389,Gulfport County,28.6233546,-102.8471669,1950,2900,MANUFACTURED,FLAT,1,SECONDARY,A,3,94046.77,2023-08-01T00:00:00,2023-10-31T00:00:00
PROP-0000448,4860 Cypress Dr,Fort Lauderdale,FL,34084,Fort Lauderdale County,40.516049,-108.1639936,1964,900,MASONRY,TILE,1,SECONDARY,B,2,562540.84,2020-10-18T00:00:00,2021-03-08T00:00:00
PROP-0000449,2984 Laurel Ln,Columbia,SC,29112,Columbia County,39.1345775,-117.9612845,1975,4900,FRAME,METAL,3,RENTAL,X500,2,604889.73,2020-02-14T00:00:00,2020-05-19T00:00:00
PROP-0000450,1171 Maple Blvd,Lake Charles,LA,71426,Lake Charles County,38.513268,-115.5660231,2005,3200,MANUFACTURED,METAL,1,VACANT,VE,1,1163576.97,2023-12-27T00:00:00,2024-05-25T00:00:00
PROP-0000451,4149 Oak Ln,Myrtle Beach,SC,29275,Myrtle Beach County,41.4625332,-85.0232913,1969,2100,MANUFACTURED,SHINGLE,2,PRIMARY,V,5,631124.5,2021-11-02T00:00:00,2022-04-16T00:00:00
PROP-0000452,7706 Cedar Ct,San Diego,CA,94557,San Diego County,33.9330864,-102.7349296,2013,3900,STEEL,METAL,2,PRIMARY,VE,2,1350736.17,2022-11-28T00:00:00,2023-03-23T00:00:00
PROP-0000453,7063 Bay Way,Greenville,SC,29930,Greenville County,40.9034814,-107.5392764,1977,4300,FRAME,TILE,2,RENTAL,X500,5,579236.43,2021-09-18T00:00:00,2022-02-14T00:00:00
PROP-0000454,5611 Palm Pl,Jacksonville,FL,33465,Jacksonville County,31.9521972,-88.6018035,2015,2800,CONCRETE,FLAT,1,VACANT,VE,3,996403.89,2023-06-26T00:00:00,2023-09-25T00:00:00
PROP-0000455,9056 Pecan Ave,Austin,TX,76739,Austin County,26.6729549,-120.8606582,2014,1000,WOOD,TILE,1,RENTAL,B,3,1138200.11,2022-11-16T00:00:00,2023-05-09T00:00:00
PROP-0000456,8998 Bay Ln,Raleigh,NC,27048,Raleigh County,29.7913696,-108.7481762,1967,3300,STEEL,SLATE,2,PRIMARY,X500,5,1484769.97,2024-03-20T00:00:00,2024-04-27T00:00:00
PROP-0000457,3538 Cypress Dr,Mobile,AL,36685,Mobile County,38.361569,-90.6646628,1979,3700,CONCRETE,SHINGLE,1,SECONDARY,X,4,377610.35,2024-01-21T00:00:00,2024-05-15T00:00:00
PROP-0000458,9561 Laurel Blvd,Los Angeles,CA,91911,Los Angeles County,33.4966036,-95.0106824,1997,3000,CONCRETE,TILE,2,VACANT,B,3,913476.22,2020-10-11T00:00:00,2021-03-05T00:00:00
PROP-0000459,9409 Pecan Way,Tampa,FL,33236,Tampa County,41.1277755,-121.1967931,1969,3200,MASONRY,FLAT,1,VACANT,B,1,323421.6,2021-11-07T00:00:00,2022-04-28T00:00:00
PROP-0000460,9985 Cypress St,San Francisco,CA,91135,San Francisco County,26.1813476,-81.6282395,1954,2600,MASONRY,TILE,1,PRIMARY,X500,1,603486.22,2023-11-12T00:00:00,2023-11-14T00:00:00
PROP-0000461,2672 Maple Blvd,Shreveport,LA,70863,Shreveport County,33.1302694,-120.9744284,2002,2100,MASONRY,TILE,1,VACANT,V,5,896629.77,2022-03-11T00:00:00,2022-05-29T00:00:00
PROP-0000462,7619 Elm Dr,Springfield,IL,60028,Springfield County,32.5774369,-87.7183645,2014,4600,MASONRY,SLATE,1,VACANT,X500,4,898108.51,2024-01-07T00:00:00,2024-01-30T00:00:00
PROP-0000463,4973 Palm Blvd,Asheville,NC,28341,Asheville County,28.0528279,-96.8195933,1994,3500,STEEL,FLAT,3,SECONDARY,AE,4,1072075.55,2023-12-05T00:00:00,2023-12-16T00:00:00
PROP-0000464,8910 Elm Ave,Columbia,SC,29373,Columbia County,31.9917287,-90.4781248,1985,1500,CONCRETE,SHINGLE,2,RENTAL,X,4,314071.53,2023-07-10T00:00:00,2023-09-01T00:00:00
PROP-0000465,1299 Pecan Pl,Los Angeles,CA,92453,Los Angeles County,37.6812764,-86.3459816,2009,3300,FRAME,SHINGLE,1,SECONDARY,C,4,768358.12,2020-02-24T00:00:00,2020-03-12T00:00:00
PROP-0000466,7271 Cedar Pl,Fort Worth,TX,76730,Fort Worth County,27.9000146,-123.2050904,1981,1400,MASONRY,METAL,1,VACANT,V,1,1033376.86,2024-01-01T00:00:00,2024-01-03T00:00:00
PROP-0000467,3015 Pine St,Raleigh,NC,28737,Raleigh County,32.5149884,-121.898735,2006,4800,WOOD,WOOD_SHAKE,2,PRIMARY,X,3,710461.09,2022-01-03T00:00:00,2022-06-05T00:00:00
PROP-0000468,3405 Bay Dr,Miami,FL,33140,Miami County,28.3997567,-123.2943085,1998,900,FRAME,METAL,2,PRIMARY,VE,1,1211632.31,2024-04-20T00:00:00,2024-10-07T00:00:00
PROP-0000469,8496 Maple Ct,Baton Rouge,LA,70581,Baton Rouge County,35.6553694,-96.5143725,1955,4200,STEEL,FLAT,1,SECONDARY,AE,3,539182.32,2022-05-01T00:00:00,2022-05-04T00:00:00
PROP-0000470,3585 Cypress Dr,Huntsville,AL,35294,Huntsville County,38.8564432,-95.4024202,1951,3100,FRAME,SHINGLE,2,VACANT,B,5,789397.95,2022-03-08T00:00:00,2022-04-03T00:00:00
PROP-0000471,9928 Magnolia Way,San Francisco,CA,94398,San Francisco County,27.2598344,-116.285434,1982,2800,MANUFACTURED,FLAT,1,PRIMARY,X500,4,805657.12,2020-07-13T00:00:00,2020-09-10T00:00:00
PROP-0000472,2132 Elm Dr,Los Angeles,CA,94764,Los Angeles County,37.8731776,-96.7302859,1979,1100,MASONRY,METAL,2,SECONDARY,V,4,370227.17,2020-02-13T00:00:00,2020-02-22T00:00:00
PROP-0000473,4656 Magnolia St,Greenville,SC,29863,Greenville County,36.0167892,-111.3079754,1992,900,MASONRY,WOOD_SHAKE,1,SECONDARY,VE,5,156785.05,2020-10-01T00:00:00,2021-03-20T00:00:00
PROP-0000474,5369 Cedar Pl,Columbia,SC,29018,Columbia County,39.7877346,-120.9206635,1998,2000,FRAME,WOOD_SHAKE,3,SECONDARY,V,1,326619.67,2022-12-03T00:00:00,2023-04-22T00:00:00
PROP-0000475,7083 Hickory Pl,Columbia,SC,29431,Columbia County,37.268454,-113.2233018,2014,1900,WOOD,TILE,1,VACANT,VE,3,1304644.25,2020-06-09T00:00:00,2020-10-10T00:00:00
PROP-0000476,2848 Cypress Pl,Austin,TX,77774,Austin County,35.3597017,-104.9290584,2000,1700,STEEL,SHINGLE,2,VACANT,AE,3,925160.37,2022-02-12T00:00:00,2022-03-23T00:00:00
PROP-0000477,7696 Elm Pl,San Francisco,CA,91858,San Francisco County,34.5564157,-102.8428493,1982,2900,MASONRY,WOOD_SHAKE,2,SECONDARY,VE,1,98224.67,2022-02-18T00:00:00,2022-06-26T00:00:00
PROP-0000478,6565 Hickory Ct,Macon,GA,31272,Macon County,30.232784,-80.5490292,2001,1200,STEEL,SHINGLE,3,PRIMARY,X,5,310554.58,2022-05-01T00:00:00,2022-08-20T00:00:00
PROP-0000479,8105 Pecan Ct,Wilmington,NC,27193,Wilmington County,31.5506637,-105.3422251,2015,2300,MASONRY,FLAT,1,RENTAL,A,2,451089.59,2023-12-23T00:00:00,2024-04-17T00:00:00
PROP-0000480,9575 Pecan Blvd,Shreveport,LA,70024,Shreveport County,38.1065272,-95.6465148,1981,3200,STEEL,WOOD_SHAKE,2,PRIMARY,VE,4,315469.52,2023-05-18T00:00:00,2023-09-04T00:00:00
PROP-0000481,6371 Birch Ln,Wilmington,NC,28321,Wilmington County,26.8576592,-98.8050854,2014,3000,MASONRY,METAL,2,VACANT,B,1,1481576.2,2022-12-27T00:00:00,2023-05-01T00:00:00
PROP-0000482,6945 Willow Way,Miami,FL,34046,Miami County,37.461718,-116.4920927,1958,3100,MASONRY,WOOD_SHAKE,1,VACANT,V,5,1426846.3,2024-05-03T00:00:00,2024-08-26T00:00:00
PROP-0000483,1066 Hickory Blvd,Springfield,IL,62534,Springfield County,29.4089826,-84.2999753,1973,3400,STEEL,WOOD_SHAKE,3,PRIMARY,V,1,496238.33,2021-02-15T00:00:00,2021-05-22T00:00:00
PROP-0000484,586 Birch Dr,Austin,TX,78072,Austin County,36.4376781,-119.5643977,1958,1100,CONCRETE,SHINGLE,2,PRIMARY,AE,2,821715.05,2021-12-01T00:00:00,2021-12-02T00:00:00
PROP-0000485,5621 Birch Way,Huntsville,AL,36057,Huntsville County,36.59162,-108.9045922,2012,2800,MASONRY,METAL,2,VACANT,A,3,1319769.95,2022-08-27T00:00:00,2022-09-21T00:00:00
PROP-0000486,2375 Oak Ave,Jacksonville,FL,34777,Jacksonville County,29.750948,-93.2323567,2001,2300,CONCRETE,FLAT,2,VACANT,X,2,84443.34,2024-01-25T00:00:00,2024-07-06T00:00:00
PROP-0000487,5433 Pecan Pl,Atlanta,GA,30787,Atlanta County,33.2371145,-91.4749961,1996,1300,CONCRETE,FLAT,3,VACANT,AE,4,497285.42,2020-04-03T00:00:00,2020-05-22T00:00:00
PROP-0000488,8367 Oak Blvd,Lake Charles,LA,70721,Lake Charles County,30.1229212,-94.3852649,2023,4300,STEEL,TILE,2,PRIMARY,X500,5,422080.29,2024-05-26T00:00:00,2024-07-19T00:00:00
PROP-0000489,578 Cedar Ct,New Orleans,LA,71459,New Orleans County,38.02725,-114.3034545,1963,2400,MANUFACTURED,FLAT,3,PRIMARY,V,5,979638.43,2022-06-09T00:00:00,2022-10-12T00:00:00
PROP-0000490,9536 Walnut Ave,Corpus Christi,TX,79153,Corpus Christi County,31.4091755,-92.4325197,1992,3200,MANUFACTURED,WOOD_SHAKE,2,VACANT,VE,2,447913.41,2021-04-03T00:00:00,2021-06-16T00:00:00
PROP-0000491,9802 Bay Dr,Houston,TX,79724,Houston County,34.7382632,-118.3936315,1961,2800,STEEL,SLATE,2,RENTAL,A,5,840556.32,2021-11-27T00:00:00,2022-03-06T00:00:00
PROP-0000492,2169 Willow Dr,Huntsville,AL,35360,Huntsville County,25.1562049,-86.4960709,1996,2800,MASONRY,METAL,2,VACANT,X500,2,934080.89,2023-10-23T00:00:00,2023-11-29T00:00:00
PROP-0000493,8330 Hickory Ave,Fort Lauderdale,FL,32883,Fort Lauderdale County,33.1308067,-87.5377586,1990,3900,CONCRETE,WOOD_SHAKE,3,PRIMARY,C,2,1255596.27,2021-09-24T00:00:00,2021-11-16T00:00:00
PROP-0000494,6519 Elm Blvd,Charleston,SC,29080,Charleston County,31.6688547,-105.4127512,1972,3800,CONCRETE,FLAT,1,RENTAL,B,2,1075574.31,2022-09-25T00:00:00,2023-02-12T00:00:00
PROP-0000495,9609 Laurel St,Birmingham,AL,35968,Birmingham County,36.1287777,-98.605074,1966,3600,MANUFACTURED,FLAT,1,SECONDARY,VE,2,1222188.99,2021-10-24T00:00:00,2021-12-13T00:00:00
PROP-0000496,2518 Palm Way,Orlando,FL,34131,Orlando County,40.7417507,-119.7738998,2023,3800,MASONRY,SHINGLE,1,RENTAL,X,2,970301.02,2020-07-27T00:00:00,2020-11-07T00:00:00
PROP-0000497,6598 Cypress Ln,Charleston,SC,29932,Charleston County,36.0975484,-107.4836478,1965,5000,MANUFACTURED,SHINGLE,2,VACANT,B,4,601598.74,2021-05-08T00:00:00,2021-06-07T00:00:00
PROP-0000498,8451 Pine St,Houston,TX,78783,Houston County,41.7849387,-102.9020719,1965,1400,WOOD,TILE,1,VACANT,B,5,257835.74,2022-09-28T00:00:00,2022-12-20T00:00:00
PROP-0000499,6740 Laurel St,Corpus Christi,TX,77581,Corpus Christi County,38.8968683,-89.5271195,2018,4100,STEEL,SHINGLE,2,PRIMARY,VE,1,336543.13,2021-01-13T00:00:00,2021-06-15T00:00:00
PROP-0000500,5249 Maple St,New Orleans,LA,70283,New Orleans County,28.5059083,-116.9067485,2021,4300,CONCRETE,SHINGLE,1,PRIMARY,B,3,1452112.15,2022-07-04T00:00:00,2022-08-16T00:00:00
PROP-0000501,856 Willow Ln,Birmingham,AL,36766,Birmingham County,27.3775358,-102.4205157,1981,2800,WOOD,METAL,2,SECONDARY,AE,1,416682.5,2021-09-07T00:00:00,2021-10-25T00:00:00
PROP-0000502,9965 Willow Dr,Shreveport,LA,70955,Shreveport County,29.7157272,-91.9194062,1977,3500,FRAME,SLATE,1,VACANT,V,4,727616.2,2020-10-01T00:00:00,2020-12-05T00:00:00
PROP-0000503,1256 Pecan Ln,Mobile,AL,35657,Mobile County,34.5819167,-95.4980711,2018,4000,WOOD,TILE,2,SECONDARY,C,4,618097.5,2021-02-21T00:00:00,2021-07-25T00:00:00
PROP-0000504,8807 Maple Way,Charleston,SC,29152,Charleston County,35.8830173,-108.0359427,1984,2900,CONCRETE,TILE,2,SECONDARY,B,1,219084.53,2020-09-12T00:00:00,2020-11-07T00:00:00
PROP-0000505,8725 Hickory Ln,Birmingham,AL,36872,Birmingham County,26.6241895,-108.6483907,1965,4400,CONCRETE,SLATE,1,PRIMARY,A,2,531554.87,2020-12-25T00:00:00,2021-04-03T00:00:00
PROP-0000506,9842 Bay Way,Shreveport,LA,70785,Shreveport County,27.1687275,-123.5821114,2018,4000,MANUFACTURED,TILE,2,SECONDARY,X,5,1124299.77,2023-02-03T00:00:00,2023-02-16T00:00:00
PROP-0000507,7600 Cedar Pl,Savannah,GA,31169,Savannah County,33.5378972,-111.8637891,2003,3500,WOOD,WOOD_SHAKE,2,SECONDARY,B,1,1425385.6,2023-12-18T00:00:00,2024-03-31T00:00:00
PROP-0000508,4032 Maple Blvd,Atlanta,GA,31817,Atlanta County,26.4379471,-111.422562,1960,3900,FRAME,FLAT,2,SECONDARY,X500,4,811316.31,2020-06-06T00:00:00,2020-11-26T00:00:00
PROP-0000509,3215 Bay St,Los Angeles,CA,94564,Los Angeles County,36.9440591,-91.0146101,2001,2300,MANUFACTURED,WOOD_SHAKE,3,PRIMARY,X500,2,1037821.48,2020-01-29T00:00:00,2020-06-11T00:00:00
PROP-0000510,2284 Willow Ct,Columbia,SC,29064,Columbia County,33.4236336,-116.4987056,1959,1500,CONCRETE,WOOD_SHAKE,1,PRIMARY,B,3,766037.05,2022-01-21T00:00:00,2022-03-29T00:00:00
PROP-0000511,3662 Bay Ln,Charleston,SC,29814,Charleston County,40.9020445,-84.730268,2022,3900,FRAME,METAL,1,VACANT,C,3,582527.7,2022-03-17T00:00:00,2022-03-18T00:00:00
PROP-0000512,245 Maple Way,Savannah,GA,31535,Savannah County,26.4406442,-101.3699816,2001,1700,STEEL,SHINGLE,3,PRIMARY,V,3,401055.23,2021-12-27T00:00:00,2022-04-07T00:00:00
PROP-0000513,3084 Willow Ln,Augusta,GA,30366,Augusta County,36.156754,-104.6683052,1996,1600,CONCRETE,WOOD_SHAKE,2,RENTAL,VE,1,349185.24,2022-05-27T00:00:00,2022-06-06T00:00:00
PROP-0000514,5526 Bay St,Lafayette,LA,70295,Lafayette County,28.3828627,-102.9110206,2003,5000,CONCRETE,SHINGLE,2,VACANT,V,3,1146547.67,2024-03-03T00:00:00,2024-06-13T00:00:00
PROP-0000515,1867 Walnut St,Sacramento,CA,90829,Sacramento County,30.8500494,-123.399446,1966,2300,FRAME,WOOD_SHAKE,2,VACANT,A,4,761874.08,2020-08-12T00:00:00,2020-10-23T00:00:00
PROP-0000516,2598 Hickory Blvd,Jackson,MS,38945,Jackson County,38.0343693,-85.9766606,2004,2300,MANUFACTURED,FLAT,1,PRIMARY,V,2,1489423.37,2021-05-22T00:00:00,2021-10-20T00:00:00
PROP-0000517,6674 Oak Ln,Baton Rouge,LA,70328,Baton Rouge County,32.2471506,-96.8754362,1965,1300,FRAME,FLAT,2,RENTAL,VE,2,557372.55,2020-09-27T00:00:00,2021-01-27T00:00:00
PROP-0000518,946 Elm Ave,Fort Lauderdale,FL,32856,Fort Lauderdale County,29.769451,-108.5549214,2004,3400,MASONRY,METAL,2,SECONDARY,A,1,154025.5,2023-08-11T00:00:00,2023-11-01T00:00:00
PROP-0000519,1750 Palm Blvd,Myrtle Beach,SC,29472,Myrtle Beach County,31.1808811,-110.6083054,2010,1400,MANUFACTURED,SHINGLE,2,SECONDARY,C,3,1132634.79,2021-07-27T00:00:00,2021-10-27T00:00:00
PROP-0000520,4621 Pine Way,Naperville,IL,60223,Naperville County,27.2182519,-91.3261528,1980,1500,FRAME,SLATE,3,SECONDARY,VE,4,1394210.91,2023-08-24T00:00:00,2023-09-12T00:00:00
PROP-0000521,7869 Walnut Dr,San Diego,CA,93429,San Diego County,25.7447888,-115.564904,1988,4300,MANUFACTURED,METAL,2,RENTAL,C,4,974407.79,2024-01-25T00:00:00,2024-02-24T00:00:00
PROP-0000522,8681 Bay St,Birmingham,AL,35586,Birmingham County,29.6605269,-81.4305746,2011,2600,FRAME,SLATE,1,SECONDARY,X,4,1052265.88,2022-05-08T00:00:00,2022-09-16T00:00:00
PROP-0000523,8444 Palm Way,Dallas,TX,77587,Dallas County,29.6154012,-115.901081,2006,1800,WOOD,TILE,2,PRIMARY,X500,5,1085010.71,2024-03-17T00:00:00,2024-07-29T00:00:00
PROP-0000524,4499 Willow Ave,Wilmington,NC,27538,Wilmington County,25.7754119,-113.5184619,1978,1000,MANUFACTURED,TILE,3,RENTAL,V,3,1320203.64,2021-08-29T00:00:00,2021-09-11T00:00:00
PROP-0000525,122 Pecan Ct,Columbia,SC,29957,Columbia County,30.5175518,-82.3571756,2018,4300,CONCRETE,WOOD_SHAKE,1,RENTAL,C,1,968856.53,2020-08-25T00:00:00,2020-08-27T00:00:00
PROP-0000526,4294 Oak Ave,Savannah,GA,31293,Savannah County,29.3748679,-96.4458958,1985,4600,WOOD,TILE,2,SECONDARY,C,3,369564.46,2020-12-27T00:00:00,2021-06-06T00:00:00
PROP-0000527,7209 Magnolia Blvd,Mobile,AL,36521,Mobile County,33.43134,-103.786835,2007,1900,MASONRY,SLATE,2,SECONDARY,B,1,520427.51,2021-04-19T00:00:00,2021-06-03T00:00:00
PROP-0000528,1280 Palm Dr,Mobile,AL,36492,Mobile County,41.4965529,-119.5897129,1958,4100,MASONRY,WOOD_SHAKE,2,PRIMARY,AE,4,625266.58,2020-10-20T00:00:00,2020-11-17T00:00:00
PROP-0000529,4168 Walnut Ave,Naples,FL,32828,Naples County,40.9561727,-97.6159641,1955,800,FRAME,SLATE,2,RENTAL,AE,2,277706.74,2020-09-27T00:00:00,2021-02-18T00:00:00
PROP-0000530,7946 Cedar Dr,Gulfport,MS,38679,Gulfport County,36.7647004,-96.3906225,1989,1500,FRAME,SHINGLE,1,RENTAL,AE,5,1338768.75,2021-11-10T00:00:00,2022-02-24T00:00:00
PROP-0000531,3813 Palm Way,New Orleans,LA,70255,New Orleans County,36.1411982,-114.0610867,1978,3200,MANUFACTURED,WOOD_SHAKE,2,PRIMARY,X500,2,1486890.64,2020-02-19T00:00:00,2020-04-16T00:00:00
PROP-0000532,5567 Maple Ct,Austin,TX,75515,Austin County,35.2766085,-116.1650178,1995,4100,CONCRETE,SLATE,1,VACANT,V,3,967156.75,2020-06-05T00:00:00,2020-08-17T00:00:00
PROP-0000533,6147 Bay Ln,Atlanta,GA,30210,Atlanta County,39.6491376,-80.9658255,1984,4900,MASONRY,METAL,1,VACANT,X500,1,240692.93,2022-10-19T00:00:00,2023-02-05T00:00:00
PROP-0000534,2189 Cedar Way,Raleigh,NC,28150,Raleigh County,33.4015101,-102.8233038,1961,3400,WOOD,WOOD_SHAKE,1,SECONDARY,X,4,860061.75,2021-10-23T00:00:00,2022-03-09T00:00:00
PROP-0000535,3870 Palm Ave,Sacramento,CA,93763,Sacramento County,33.9580811,-89.8299275,2018,2200,MANUFACTURED,SHINGLE,1,PRIMARY,VE,1,594605.79,2023-01-03T00:00:00,2023-05-04T00:00:00
PROP-0000536,6012 Laurel Blvd,New Orleans,LA,70468,New Orleans County,27.4503841,-86.4542629,1957,3400,MASONRY,TILE,2,PRIMARY,V,1,1446113.82,2021-12-16T00:00:00,2022-06-14T00:00:00
PROP-0000537,7058 Magnolia St,Lafayette,LA,71123,Lafayette County,36.2667044,-120.754107,1953,4600,MASONRY,SHINGLE,1,SECONDARY,AE,2,189432.72,2023-11-26T00:00:00,2024-04-19T00:00:00
PROP-0000538,2395 Hickory Ln,Mobile,AL,36562,Mobile County,37.2834761,-104.46516,1973,4900,MANUFACTURED,SHINGLE,1,SECONDARY,A,1,937926.51,2022-08-20T00:00:00,2022-10-03T00:00:00
PROP-0000539,7040 Pecan Pl,San Francisco,CA,93543,San Francisco County,40.6255539,-101.9176128,1951,2200,STEEL,TILE,1,PRIMARY,X,2,1135251.33,2022-03-22T00:00:00,2022-07-02T00:00:00
PROP-0000540,3109 Laurel Ave,Chicago,IL,62698,Chicago County,32.9634136,-110.2196549,1978,4900,STEEL,FLAT,1,RENTAL,X,2,463285.78,2022-03-14T00:00:00,2022-04-09T00:00:00
PROP-0000541,4024 Elm Blvd,Austin,TX,78423,Austin County,26.1104258,-97.7271267,1992,2700,MASONRY,SLATE,1,PRIMARY,VE,3,200755.88,2020-02-27T00:00:00,2020-07-21T00:00:00
PROP-0000542,848 Oak Ct,Chicago,IL,60249,Chicago County,25.1441384,-108.3074377,2022,2600,STEEL,SLATE,1,VACANT,C,2,1077772.67,2022-09-17T00:00:00,2022-10-11T00:00:00
PROP-0000543,8327 Walnut Blvd,Macon,GA,30085,Macon County,38.5331781,-103.0140665,2014,1000,CONCRETE,TILE,1,VACANT,AE,1,1433001.98,2020-07-25T00:00:00,2020-09-22T00:00:00
PROP-0000544,8559 Hickory Ct,Columbia,SC,29726,Columbia County,30.7633521,-108.1460803,1970,3500,FRAME,WOOD_SHAKE,2,VACANT,VE,2,1495753.49,2022-10-24T00:00:00,2023-03-28T00:00:00
PROP-0000545,8251 Maple St,Dallas,TX,75949,Dallas County,34.3013129,-81.3663268,2022,1300,STEEL,SHINGLE,2,SECONDARY,B,2,176789.81,2023-07-09T00:00:00,2023-12-03T00:00:00
PROP-0000546,3035 Hickory Pl,Augusta,GA,30870,Augusta County,41.6342239,-90.4215597,1961,3600,MANUFACTURED,TILE,3,VACANT,A,3,1299784.62,2020-05-25T00:00:00,2020-09-04T00:00:00
PROP-0000547,8496 Laurel Ct,Mobile,AL,36120,Mobile County,36.5974152,-101.7385331,2006,2400,MANUFACTURED,SHINGLE,2,PRIMARY,VE,5,91278.98,2022-01-21T00:00:00,2022-02-16T00:00:00
PROP-0000548,6641 Laurel Ave,Asheville,NC,27759,Asheville County,39.860701,-94.5573753,1970,3000,STEEL,FLAT,2,VACANT,AE,1,335988.17,2023-03-13T00:00:00,2023-04-09T00:00:00
PROP-0000549,5485 Maple Ct,Montgomery,AL,36087,Montgomery County,33.2670153,-93.0992031,1975,3800,FRAME,METAL,2,SECONDARY,X500,2,989107.26,2022-04-02T00:00:00,2022-06-22T00:00:00
PROP-0000550,6022 Walnut Way,Chicago,IL,61537,Chicago County,25.9193178,-85.8070935,1998,3500,CONCRETE,METAL,2,PRIMARY,V,1,468945.55,2020-05-07T00:00:00,2020-05-27T00:00:00
PROP-0000551,3607 Pecan Ln,Asheville,NC,27516,Asheville County,26.5715014,-84.3277636,2003,2900,CONCRETE,TILE,1,VACANT,X500,4,840418.93,2022-12-10T00:00:00,2023-01-20T00:00:00
PROP-0000552,262 Willow Dr,Huntsville,AL,35295,Huntsville County,34.8343191,-117.6368415,2023,5000,MANUFACTURED,WOOD_SHAKE,2,RENTAL,A,2,1353031.58,2022-03-07T00:00:00,2022-04-13T00:00:00
PROP-0000553,6758 Elm St,Biloxi,MS,39326,Biloxi County,35.7829819,-95.8876786,1964,4500,FRAME,SHINGLE,1,SECONDARY,X,5,1179625.84,2023-10-12T00:00:00,2024-03-13T00:00:00
PROP-0000554,3231 Pecan St,Mobile,AL,36156,Mobile County,25.2752516,-84.5471838,1994,4000,FRAME,WOOD_SHAKE,2,VACANT,X,4,579455.15,2021-03-05T00:00:00,2021-07-21T00:00:00
PROP-0000555,7617 Palm Ct,Huntsville,AL,35580,Huntsville County,35.1131608,-100.1184333,1964,3200,CONCRETE,WOOD_SHAKE,2,VACANT,B,5,1411820.18,2020-12-26T00:00:00,2021-01-20T00:00:00
PROP-0000556,369 Birch Way,Houston,TX,75673,Houston County,37.7490425,-96.5516696,1961,4200,FRAME,WOOD_SHAKE,2,PRIMARY,B,4,380857.0,2023-08-23T00:00:00,2023-12-17T00:00:00
PROP-0000557,7793 Maple Ct,Sacramento,CA,96169,Sacramento County,32.0198906,-87.9016091,1964,3300,FRAME,METAL,2,RENTAL,B,3,516503.29,2021-02-04T00:00:00,2021-05-21T00:00:00
PROP-0000558,354 Oak Blvd,Charleston,SC,29576,Charleston County,38.9405846,-97.6023903,2003,2900,MASONRY,SLATE,3,SECONDARY,X,2,955100.44,2020-03-07T00:00:00,2020-06-15T00:00:00
PROP-0000559,6496 Hickory Blvd,Fort Lauderdale,FL,33250,Fort Lauderdale County,33.7937103,-104.7543302,2004,1400,MANUFACTURED,TILE,2,VACANT,B,5,305855.5,2020-09-20T00:00:00,2020-12-11T00:00:00
PROP-0000560,7266 Oak Blvd,Charleston,SC,29089,Charleston County,37.0287905,-83.4938467,1961,1300,WOOD,FLAT,1,SECONDARY,X500,3,344908.34,2020-02-22T00:00:00,2020-08-07T00:00:00
PROP-0000561,4118 Hickory Way,Myrtle Beach,SC,29494,Myrtle Beach County,25.8797307,-120.3496118,1974,1700,MANUFACTURED,SHINGLE,2,PRIMARY,AE,4,1396622.62,2023-01-01T00:00:00,2023-02-01T00:00:00
PROP-0000562,3059 Maple Ave,Dallas,TX,78156,Dallas County,40.5162252,-114.849212,1986,1400,STEEL,SHINGLE,2,VACANT,AE,2,1056017.7,2021-06-20T00:00:00,2021-09-24T00:00:00
PROP-0000563,4994 Oak Blvd,Macon,GA,31890,Macon County,35.3131326,-122.6161792,1970,2900,CONCRETE,FLAT,3,PRIMARY,V,5,1133209.5,2021-01-03T00:00:00,2021-02-03T00:00:00
PROP-0000564,8586 Willow Blvd,Charleston,SC,29356,Charleston County,26.9514038,-114.4538574,2018,2800,MASONRY,TILE,1,SECONDARY,B,3,763836.32,2020-02-17T00:00:00,2020-03-11T00:00:00
PROP-0000565,8223 Palm Way,Augusta,GA,30642,Augusta County,27.9403118,-93.7694719,2009,2500,STEEL,SHINGLE,2,RENTAL,V,2,1434342.15,2024-03-06T00:00:00,2024-07-08T00:00:00
